"","CD_MUN","NM_MUN","SIGLA_UF","longitude","latitude","nome","th","tnh","td","tr","ti","u","as","q","pi","us","sd","ou","mi","mf","p","m","g","d","nrow"
"1",1302900,"Maués","AM",-58.07064444,-3.974813889,"Mandu",0,0,0,0,0,0,1,0,0,1,0,0,0,0,0,0,1,"asusg",210
"2",1302900,"Maués","AM",-58.08031944,-3.899788889,"Pacoval 2",0,0,0,0,0,0,1,0,0,1,0,0,0,0,0,0,1,"asusg",210
"3",1302900,"Maués","AM",-58.08517778,-3.802011111,"Pacoval 1",0,0,0,0,0,0,1,0,0,1,0,0,0,0,0,0,1,"asusg",210
"4",1302900,"Maués","AM",-58.05184444,-3.775766667,"Vista Alegre",0,0,0,0,0,0,1,0,0,1,0,0,0,0,0,0,1,"asusg",210
"5",1302900,"Maués","AM",-57.91208889,-3.792858333,"Ponta do Bol?o",0,0,0,0,0,0,0,0,0,0,1,0,0,0,0,0,0,"sd",288
"6",1302900,"Maués","AM",-57.79883611,-3.810891667,"Cicant? II",0,0,0,0,0,0,0,0,0,0,0,0,0,0,0,0,0,NA,1910
"7",1302900,"Maués","AM",-57.81084167,-3.800947222,"Cicant? I",0,0,0,0,0,0,0,0,0,0,0,0,0,0,0,0,0,NA,1910
"8",1302900,"Maués","AM",-57.90545,-3.834594444,"Perigo",0,0,0,0,0,0,1,0,0,1,0,0,0,0,0,0,1,"asusg",210
"9",1302900,"Maués","AM",-57.86808333,-3.858541667,"Pajur?",0,0,0,0,0,0,1,0,0,1,0,0,0,0,0,0,1,"asusg",210
"10",1302900,"Maués","AM",-57.9044,-3.972,"Varre Vento I",0,0,0,0,0,0,1,0,0,1,0,0,0,0,0,0,1,"asusg",210
"11",1302900,"Maués","AM",-57.90626667,-3.958133333,"Varre Vento II",0,0,0,0,0,0,1,0,0,1,0,0,0,0,0,0,1,"asusg",210
"12",1302900,"Maués","AM",-57.90170556,-3.962869444,"S?o Pedro",0,0,0,0,0,0,1,0,0,1,0,0,0,0,0,0,1,"asusg",210
"13",1302900,"Maués","AM",-57.91230833,-3.938497222,"Espirito Santo",0,0,0,0,0,0,1,0,0,1,0,0,0,0,0,0,1,"asusg",210
"14",1302900,"Maués","AM",-57.90996667,-4.005655556,"Flechal",0,0,0,0,0,0,1,0,0,1,0,0,0,0,0,0,1,"asusg",210
"15",1302900,"Maués","AM",-57.54831944,-3.781388889,"Batista",0,0,0,0,0,0,1,0,0,1,0,0,0,0,0,0,1,"asusg",210
"16",1302900,"Maués","AM",-57.57701389,-4.379266667,"Sinai I",0,0,0,0,0,0,0,0,0,0,0,0,0,0,0,0,0,NA,1910
"17",1302900,"Maués","AM",-57.54843611,-3.826369444,"Pingo de Ouro",0,0,0,0,0,0,0,0,0,1,0,0,0,0,0,0,1,"usg",158
"18",1302900,"Maués","AM",-57.62358056,-4.389966667,"Sinai II",0,0,0,0,0,0,1,0,0,1,0,0,0,0,0,0,1,"asusg",210
"19",1302900,"Maués","AM",-57.5906,-4.314102778,"Laranjal I",0,0,0,0,0,0,1,0,0,1,0,0,0,0,0,0,1,"asusg",210
"20",1302900,"Maués","AM",-57.60958333,-4.307927778,"Laranjal II",0,0,0,0,0,0,1,0,0,1,0,0,0,0,0,0,1,"asusg",210
"21",1302900,"Maués","AM",-57.60603889,-4.306383333,"Laranjal III",0,0,0,0,0,0,1,0,0,1,0,0,0,0,0,0,1,"asusg",210
"22",1302900,"Maués","AM",-57.57909722,-4.178497222,"Maring? I",0,0,0,0,0,0,1,0,0,1,0,0,0,0,0,0,1,"asusg",210
"23",1302900,"Maués","AM",-57.57771667,-4.150227778,"Maring? II",0,0,0,0,0,0,0,0,0,0,0,0,0,0,0,0,0,NA,1910
"24",1302900,"Maués","AM",-57.55460833,-4.075358333,"Vila Darci",0,0,0,0,0,0,0,0,0,0,0,0,0,0,0,0,0,NA,1910
"25",1302900,"Maués","AM",-57.575125,-3.988708333,"Para?so I",0,0,0,0,0,0,1,0,0,1,0,0,0,0,0,0,1,"asusg",210
"26",1302900,"Maués","AM",-57.50427778,-3.898325,"Mucaj? I",0,0,0,0,0,0,0,0,0,0,0,0,0,0,0,0,0,NA,1910
"27",1304203,"Tefé","AM",-64.84561304,-3.435969098,"S?o Sebasti?o do Tur?",0,0,0,0,0,0,0,0,0,0,0,0,0,0,0,0,0,NA,1910
"28",1300029,"Alvarães","AM",-64.9723069,-3.524829335,"Bom Jesus da Ponta da Castanha",0,0,0,0,0,0,0,0,0,0,0,0,0,0,0,0,0,NA,1910
"29",1300029,"Alvarães","AM",-64.90429505,-3.430030337,"Praia",0,0,0,0,0,0,0,0,0,0,0,0,0,0,0,0,0,NA,1910
"30",1300029,"Alvarães","AM",-64.89748908,-3.396081921,"Santa Luzia",0,0,0,0,0,0,0,0,0,0,0,0,0,0,0,0,0,NA,1910
"31",1300029,"Alvarães","AM",-64.90445647,-3.406954759,"Maraj? I",0,0,0,0,0,0,0,0,0,0,0,0,0,0,0,0,0,NA,1910
"32",1300029,"Alvarães","AM",-64.78027778,-3.301388889,"Nogueira",0,0,0,0,0,0,0,0,0,0,0,0,0,0,0,0,0,NA,1910
"33",1300029,"Alvarães","AM",-64.83166548,-3.34974959,"Itapiranema III",0,0,0,0,0,0,0,0,0,0,0,0,0,0,0,0,0,NA,1910
"34",1300029,"Alvarães","AM",-64.82444921,-3.344699343,"Itapiranema II",0,0,0,0,0,0,0,0,0,0,0,0,0,0,0,0,0,NA,1910
"35",1300029,"Alvarães","AM",-64.84145465,-3.354577864,"Mana?",0,0,0,0,0,0,0,0,0,0,0,0,0,0,0,0,0,NA,1910
"36",1300029,"Alvarães","AM",-64.94447194,-3.466604675,"Boa Vista",0,0,0,0,0,0,0,0,0,0,0,0,0,0,0,0,0,NA,1910
"37",1300029,"Alvarães","AM",-64.94641588,-3.471193896,"Moria",0,0,0,0,0,0,0,0,0,0,0,0,0,0,0,0,0,NA,1910
"38",1300029,"Alvarães","AM",-64.94844849,-3.475131909,"S?o Raimundo de Cima",0,0,0,0,0,0,0,0,0,0,0,0,0,0,0,0,0,NA,1910
"39",1300029,"Alvarães","AM",-64.90506372,-3.431981877,"Ponto do Catuiri",0,0,0,0,0,0,0,0,0,0,0,0,0,0,0,0,0,NA,1910
"40",1304203,"Tefé","AM",-64.7828992,-3.384509486,"Ipapuc?",0,0,0,0,0,0,0,0,0,0,0,0,0,0,0,0,0,NA,1910
"41",1304203,"Tefé","AM",-64.74402685,-3.35882648,"Fazenda Para?so",0,0,0,0,0,0,0,0,0,0,0,0,0,0,0,0,0,NA,1910
"42",1304203,"Tefé","AM",-64.677991,-3.35979,"Vila I",0,0,0,0,0,0,0,0,0,0,0,0,0,1,0,0,0,"mf",383
"43",1304203,"Tefé","AM",-64.67491523,-3.360322495,"Vila II",0,0,0,0,0,0,0,0,0,0,0,0,0,1,0,0,0,"mf",383
"44",1304203,"Tefé","AM",-64.67193174,-3.362624598,"Vila III",0,0,0,0,0,0,0,0,0,0,0,0,0,0,0,0,0,NA,1910
"45",1304203,"Tefé","AM",-64.6685886,-3.365108181,"Vila IV",0,0,0,0,0,0,0,0,0,0,0,0,0,0,0,0,0,NA,1910
"46",1304203,"Tefé","AM",-64.59193055,-3.403744276,"Vila Izidoro",0,0,0,0,0,0,0,0,0,0,0,0,0,0,0,0,0,NA,1910
"47",1100205,"Porto Velho","RO",-63.928459,-8.644323,"Remanso Grande",0,0,0,0,0,0,0,0,0,1,0,0,0,1,0,0,0,"usmf",16
"48",1100205,"Porto Velho","RO",-63.953495,-8.809277,"Brejo",0,0,0,0,0,0,0,0,0,0,0,0,0,0,0,0,1,"g",857
"49",1100205,"Porto Velho","RO",-63.627537,-8.625587,"Nova Vida",0,0,0,0,0,0,1,0,0,0,0,0,0,0,1,0,0,"asp",66
"50",1100205,"Porto Velho","RO",-63.884979,-8.64134,"Belmonte",0,0,0,0,0,0,0,0,0,0,0,0,0,0,0,0,0,NA,1910
"51",1100205,"Porto Velho","RO",-63.482197,-8.565112,"Barranco",0,0,0,0,0,0,0,0,0,0,0,0,0,0,0,0,0,NA,1910
"52",1100205,"Porto Velho","RO",-63.518578,-8.448761,"Prosperidade",0,0,0,0,0,0,0,0,0,0,0,0,0,0,0,0,1,"g",857
"53",1100205,"Porto Velho","RO",-63.528664,-8.457831,"Itapirema",0,0,0,0,0,0,0,0,0,0,0,0,0,0,0,0,0,NA,1910
"54",1100205,"Porto Velho","RO",-63.952724,-8.798141,"Veneza",0,0,0,0,0,0,0,0,0,0,0,0,0,0,0,0,1,"g",857
"55",1101104,"Itapuã do Oeste","RO",-63.16861,-9.095833,"Topazio",0,0,0,0,0,0,0,0,0,1,0,0,0,0,0,0,1,"usg",158
"56",1101104,"Itapuã do Oeste","RO",-63.305832,-8.958333,"Terra Preta",0,0,0,0,0,0,0,0,0,0,0,0,0,0,0,0,0,NA,1910
"57",1100205,"Porto Velho","RO",-64.055557,-8.888889,"Teot?nio",0,0,0,0,0,0,0,0,0,0,0,0,0,0,0,0,0,NA,1910
"58",1100809,"Candeias do Jamari","RO",-63.544998,-9.030833,"Taboca",0,0,0,0,0,0,1,0,0,0,0,0,0,1,1,0,0,"asmfp",36
"59",1100205,"Porto Velho","RO",-63.940277,-8.811667,"Santo Ant?nio 1",0,0,0,0,0,0,0,0,0,0,0,0,0,0,0,0,0,NA,1910
"60",1100205,"Porto Velho","RO",-63.858334,-8.622222,"Santa Cruz",0,0,0,0,0,0,0,0,0,0,0,0,0,0,0,0,1,"g",857
"61",1100809,"Candeias do Jamari","RO",-63.453335,-8.736667,"Samuel 6",0,0,0,0,0,0,0,0,0,0,1,0,0,0,0,0,0,"sd",288
"62",1100809,"Candeias do Jamari","RO",-63.417221,-8.751389,"Samuel 5",0,0,0,0,0,0,0,0,0,0,0,0,0,0,0,0,0,NA,1910
"63",1100809,"Candeias do Jamari","RO",-63.449165,-8.753333,"Samuel 4",0,0,0,0,0,0,0,0,0,0,0,0,0,0,0,0,0,NA,1910
"64",1100809,"Candeias do Jamari","RO",-63.452778,-8.7525,"Samuel 3",0,0,0,0,0,0,0,0,0,0,0,0,0,0,0,0,0,NA,1910
"65",1100809,"Candeias do Jamari","RO",-63.417221,-8.751111,"Samuel 2",0,0,0,0,0,0,0,0,0,0,0,0,0,0,0,0,0,NA,1910
"66",1100809,"Candeias do Jamari","RO",-63.453335,-8.748333,"Samuel 1",0,0,0,0,0,0,0,0,0,0,1,0,0,0,0,0,0,"sd",288
"67",1100205,"Porto Velho","RO",-63.970833,-8.813056,"Rema",0,0,0,0,0,0,0,0,0,0,0,0,0,0,0,0,0,NA,1910
"68",1101104,"Itapuã do Oeste","RO",-63.274166,-9.165,"Quebra Canto",0,0,0,0,0,0,0,0,0,0,0,0,0,0,0,0,0,NA,1910
"69",1101104,"Itapuã do Oeste","RO",-63.273888,-9.166667,"Quebra Canto 2",0,0,0,0,0,0,0,0,0,0,0,0,0,0,0,0,0,NA,1910
"70",1100205,"Porto Velho","RO",-64.461388,-9.398056,"Quatro Azes",0,0,0,0,0,0,0,0,0,0,0,0,0,0,0,0,0,NA,1910
"71",1100205,"Porto Velho","RO",-63.520279,-8.344722,"Pupunha",0,0,0,0,0,0,1,0,0,1,0,0,0,0,0,0,1,"asusg",210
"72",1101104,"Itapuã do Oeste","RO",-63.252499,-9.177778,"Provid?ncia 2",0,0,0,0,0,0,0,0,0,0,0,0,0,0,0,0,0,NA,1910
"73",1100809,"Candeias do Jamari","RO",-63.37389,-9.391667,"Provid?ncia 1",0,0,0,0,0,0,0,0,0,0,0,0,0,0,0,0,0,NA,1910
"74",1101104,"Itapuã do Oeste","RO",-63.318619,-8.871389,"Prainha",0,0,0,0,0,0,0,0,0,0,0,0,0,0,0,0,0,NA,1910
"75",1100809,"Candeias do Jamari","RO",-63.411667,-8.744722,"PR-3",0,0,0,0,0,0,0,0,0,0,0,0,0,0,0,0,0,NA,1910
"76",1100809,"Candeias do Jamari","RO",-63.407501,-8.754722,"Po?ao 1",0,0,0,0,0,0,0,0,0,0,0,0,0,0,0,0,0,NA,1910
"77",1100809,"Candeias do Jamari","RO",-63.430832,-8.723333,"Picada",0,0,0,0,0,0,0,0,0,0,1,0,0,0,0,0,0,"sd",288
"78",1300904,"Canutama","AM",-63.856945,-8.1,"Pet?lia",0,0,0,0,0,0,1,0,0,1,0,0,0,1,0,0,0,"asusmf",159
"79",1100809,"Candeias do Jamari","RO",-63.466667,-8.759167,"Peruano",0,0,0,0,0,0,0,0,0,0,0,0,0,0,0,0,0,NA,1910
"80",1100809,"Candeias do Jamari","RO",-63.500278,-9.211667,"Peroba",0,0,0,0,0,0,0,0,0,0,1,0,0,0,0,1,0,"sdm",12
"81",1101104,"Itapuã do Oeste","RO",-63.288055,-9.033333,"Pedro",0,0,0,0,0,0,0,0,0,0,0,0,0,0,0,0,0,NA,1910
"82",1100205,"Porto Velho","RO",-65.344666,-9.538889,"Pederneira 3",0,0,0,0,0,0,0,0,0,0,1,0,0,0,0,0,1,"sdg",43
"83",1100205,"Porto Velho","RO",-65.326111,-9.544444,"Pederneira 2",0,0,0,0,0,0,0,0,0,0,1,0,0,0,0,1,1,"sdmg",3
"84",1100205,"Porto Velho","RO",-65.324448,-9.545833,"Pederneira 1",0,0,0,0,0,0,0,0,0,0,1,0,0,0,0,1,1,"sdmg",3
"85",1100809,"Candeias do Jamari","RO",-63.428333,-8.733611,"Pe?o",0,0,0,0,0,0,0,0,0,0,1,0,0,0,0,0,0,"sd",288
"86",1100205,"Porto Velho","RO",-63.515835,-8.326667,"Paquet?",0,0,0,0,0,0,1,0,0,1,0,0,0,0,0,0,1,"asusg",210
"87",1101104,"Itapuã do Oeste","RO",-63.24889,-9.159444,"Pacatuba",0,0,0,0,0,0,0,0,0,0,0,0,0,0,0,0,0,NA,1910
"88",1100205,"Porto Velho","RO",-63.473331,-8.483333,"Paca",0,0,0,0,0,0,0,0,0,0,1,0,0,0,0,0,0,"sd",288
"89",1101104,"Itapuã do Oeste","RO",-63.2925,-8.968056,"Nova Vida 4",0,0,0,0,0,0,0,0,0,0,0,0,0,0,0,0,0,NA,1910
"90",1101104,"Itapuã do Oeste","RO",-63.289722,-8.965556,"Nova Vida 3",0,0,0,0,0,0,0,0,0,0,0,0,0,0,0,0,0,NA,1910
"91",1101104,"Itapuã do Oeste","RO",-63.298058,-8.974722,"Nova Vida 2",0,0,0,0,0,0,0,0,0,0,0,0,0,0,0,0,0,NA,1910
"92",1101104,"Itapuã do Oeste","RO",-63.275002,-8.973611,"Nova Vida 1",0,0,0,0,0,0,0,0,0,0,0,0,0,0,0,0,0,NA,1910
"93",1101104,"Itapuã do Oeste","RO",-63.205276,-9.319722,"Nascente",0,0,0,0,0,0,0,0,0,0,0,0,0,0,0,0,0,NA,1910
"94",1100205,"Porto Velho","RO",-64.193054,-9.056944,"Morrinhos",0,0,0,0,0,0,0,0,0,0,0,0,0,0,0,0,1,"g",857
"95",1100205,"Porto Velho","RO",-63.488335,-8.310833,"Monte Alegre",0,0,0,0,0,0,1,0,0,1,0,0,0,0,0,0,1,"asusg",210
"96",1100254,"Presidente Médici","RO",-62.125,-11.178889,"Mizael",0,0,0,0,0,0,0,0,0,0,0,0,0,1,0,0,0,"mf",383
"97",1100809,"Candeias do Jamari","RO",-63.363609,-8.833889,"Matapi 2",0,0,0,0,0,0,0,0,0,0,0,0,0,0,0,0,0,NA,1910
"98",1100809,"Candeias do Jamari","RO",-63.362499,-8.833333,"Matapi 1",0,0,0,0,0,0,0,0,0,0,0,0,0,0,0,0,0,NA,1910
"99",1101104,"Itapuã do Oeste","RO",-63.330833,-8.996389,"Marcos",0,0,0,0,0,0,0,0,0,0,0,0,0,0,0,0,0,NA,1910
"100",1100205,"Porto Velho","RO",-63.90646,-8.765833,"Maravilha",0,0,0,0,0,1,0,0,0,0,0,0,0,0,0,0,0,"u",52
"101",1100205,"Porto Velho","RO",-64.05278,-8.873611,"Mangal",0,0,0,0,0,1,0,0,0,0,0,0,0,0,0,1,0,"um",1
"102",1100809,"Candeias do Jamari","RO",-63.356667,-8.921667,"Lima",0,0,0,0,0,0,0,0,0,0,1,0,0,0,0,0,0,"sd",288
"103",1100809,"Candeias do Jamari","RO",-63.27,-8.804167,"Justo",0,0,0,0,0,0,1,0,0,1,0,0,0,0,1,0,0,"asusp",77
"104",1101104,"Itapuã do Oeste","RO",-63.185833,-9.253889,"Juli?o",0,0,0,0,0,0,0,0,0,0,0,0,0,0,0,0,0,NA,1910
"105",1101104,"Itapuã do Oeste","RO",-63.283333,-9.025,"Joaquim",0,0,0,0,0,0,0,0,1,0,0,0,0,0,0,0,0,"pi",144
"106",1101104,"Itapuã do Oeste","RO",-63.166668,-9.333611,"Jo?o",0,0,0,0,0,0,0,0,0,0,0,0,0,0,0,1,0,"m",367
"107",1101104,"Itapuã do Oeste","RO",-63.246944,-9.195,"Jo?o Preto",0,0,0,0,0,0,0,0,0,0,0,0,0,0,0,0,0,NA,1910
"108",1100809,"Candeias do Jamari","RO",-63.405834,-8.8425,"Jatuarana 4",0,0,0,0,0,0,0,0,0,0,0,0,0,0,0,0,0,NA,1910
"109",1100809,"Candeias do Jamari","RO",-63.440834,-8.783611,"Jatuarana 3",0,0,0,0,0,0,0,0,0,0,0,0,0,0,0,0,0,NA,1910
"110",1100809,"Candeias do Jamari","RO",-63.400002,-8.849167,"Jatuarana 1",0,0,0,0,0,0,0,0,0,0,0,0,0,0,0,0,0,NA,1910
"111",1101104,"Itapuã do Oeste","RO",-63.298885,-8.91,"Japi?m",0,0,0,0,0,0,0,0,0,0,0,0,0,0,0,0,0,NA,1910
"112",1100205,"Porto Velho","RO",-64.398613,-9.27,"Jaci-Paran?",0,0,0,0,0,0,0,0,0,0,0,0,0,0,0,0,0,NA,1910
"113",1100205,"Porto Velho","RO",-63.465691,-8.573141,"Jacarezinho",0,0,0,0,0,0,0,0,0,0,0,0,0,0,0,0,0,NA,1910
"114",1101104,"Itapuã do Oeste","RO",-63.185841,-9.216389,"Itapo?",0,0,0,0,0,0,0,0,0,0,1,0,0,0,0,0,0,"sd",288
"115",1100205,"Porto Velho","RO",-63.933056,-8.798339,"Igap? 2",0,0,0,0,0,0,0,0,0,0,0,0,0,0,0,0,0,NA,1910
"116",1100205,"Porto Velho","RO",-63.865002,-8.797222,"Igap? 1",0,0,0,0,0,1,0,0,0,0,0,0,0,0,0,0,0,"u",52
"117",1101104,"Itapuã do Oeste","RO",-63.15778,-9.128333,"Gog?",0,0,0,0,0,0,0,0,0,1,0,0,0,0,0,0,1,"usg",158
"118",1100205,"Porto Velho","RO",-64.722221,-9.323611,"Girau",0,0,0,0,0,0,0,0,0,0,0,0,0,0,0,0,1,"g",857
"119",1100205,"Porto Velho","RO",-63.833332,-8.883333,"Gar?a",0,0,0,0,0,0,0,0,0,0,0,0,0,0,0,0,0,NA,1910
"120",1100205,"Porto Velho","RO",-65.526327,-9.786336,"Fortaleza de Abun?",0,0,0,0,0,1,0,0,0,0,0,0,0,0,0,0,0,"u",52
"121",1100809,"Candeias do Jamari","RO",-63.376667,-8.983611,"Filipe",0,0,0,0,0,0,0,0,0,0,0,0,0,0,0,0,0,NA,1910
"122",1100809,"Candeias do Jamari","RO",-63.375832,-8.770833,"Feijoal",0,0,0,0,0,0,0,0,0,0,0,0,0,0,0,0,0,NA,1910
"123",1100809,"Candeias do Jamari","RO",-63.421112,-8.741667,"Esperan?a",0,0,0,0,0,0,0,0,0,0,0,0,0,0,0,0,0,NA,1910
"124",1100205,"Porto Velho","RO",-63.535831,-8.349167,"Cuni?",0,0,0,0,0,0,1,0,0,1,0,0,0,0,0,0,1,"asusg",210
"125",1100205,"Porto Velho","RO",-63.906944,-8.780833,"Cujubim",0,0,0,0,0,0,0,0,0,0,0,0,0,0,0,0,0,NA,1910
"126",1101104,"Itapuã do Oeste","RO",-63.144169,-9.383611,"Concei??o",0,0,0,0,0,0,0,0,0,0,0,0,0,0,0,0,0,NA,1910
"127",1100809,"Candeias do Jamari","RO",-63.424721,-8.749167,"Chico Luiz 2",0,0,0,0,0,0,0,0,0,0,0,0,0,0,0,0,0,NA,1910
"128",1100809,"Candeias do Jamari","RO",-63.424721,-8.749722,"Chico Luiz 1",0,0,0,0,0,0,0,0,0,0,0,0,0,0,0,0,0,NA,1910
"129",1100205,"Porto Velho","RO",-63.468674,-8.530501,"Casar?o",0,0,0,0,0,0,1,0,0,0,0,0,0,1,0,0,0,"asmf",199
"130",1101104,"Itapuã do Oeste","RO",-63.266666,-9.113333,"Carneiro 2",0,0,0,0,0,0,0,0,0,0,0,0,0,0,0,0,0,NA,1910
"131",1101104,"Itapuã do Oeste","RO",-63.246666,-9.1075,"Carneiro 1",0,0,0,0,0,0,0,0,0,0,0,0,0,0,1,0,0,"p",575
"132",1101104,"Itapuã do Oeste","RO",-63.198334,-9.2,"Carmo 5",0,0,0,0,0,0,0,0,0,0,1,0,0,0,1,0,0,"sdp",37
"133",1101104,"Itapuã do Oeste","RO",-63.211666,-9.196667,"Carmo 4",0,0,0,0,0,0,0,0,0,0,0,0,0,1,0,0,0,"mf",383
"134",1101104,"Itapuã do Oeste","RO",-63.213055,-9.2,"Carmo 3",0,0,0,0,0,0,0,0,0,0,0,0,0,0,0,0,0,NA,1910
"135",1101104,"Itapuã do Oeste","RO",-63.212502,-9.200278,"Carmo 2",0,0,0,0,0,0,0,0,0,0,0,0,0,0,0,0,0,NA,1910
"136",1101104,"Itapuã do Oeste","RO",-63.209999,-9.195556,"Carmo 1",0,0,0,0,0,0,0,0,0,0,0,0,0,0,1,0,0,"p",575
"137",1100205,"Porto Velho","RO",-63.477222,-8.439167,"Carlos",0,0,0,0,0,0,0,0,0,0,1,0,0,0,0,0,0,"sd",288
"138",1100205,"Porto Velho","RO",-63.913612,-8.782778,"Candel?ria",0,0,0,0,0,0,0,0,0,0,0,0,0,0,0,0,0,NA,1910
"139",1101104,"Itapuã do Oeste","RO",-63.271389,-8.990583,"Sem Nome",0,0,0,0,0,0,0,0,0,0,0,0,0,0,0,0,0,NA,1910
"140",1101104,"Itapuã do Oeste","RO",-63.26889,-8.99,"Cachoeirinha 2",0,0,0,0,0,0,0,0,0,0,0,0,0,0,0,0,0,NA,1910
"141",1101104,"Itapuã do Oeste","RO",-63.313332,-8.896667,"Butica 2",0,0,0,0,0,0,0,0,0,0,0,0,0,0,0,0,0,NA,1910
"142",1101104,"Itapuã do Oeste","RO",-63.314167,-8.898611,"Butica 1",0,0,0,0,0,0,0,0,0,0,0,0,0,0,0,0,0,NA,1910
"143",1100809,"Candeias do Jamari","RO",-63.372223,-8.822222,"Brech?",0,0,0,0,0,0,0,0,0,0,0,0,0,0,0,0,0,NA,1910
"144",1100205,"Porto Velho","RO",-63.5,-8.3175,"Bom Jardim",0,0,0,0,0,0,1,0,0,1,0,0,0,0,0,0,1,"asusg",210
"145",1100205,"Porto Velho","RO",-63.200001,-8.25,"Bela Palmeira",0,0,0,0,0,0,0,0,0,0,1,0,0,0,0,0,0,"sd",288
"146",1100205,"Porto Velho","RO",-62.872223,-8.108333,"B?rbara",0,0,0,0,0,0,0,0,0,0,1,0,0,0,0,0,0,"sd",288
"147",1100809,"Candeias do Jamari","RO",-63.521702,-8.641125,"Associa??o Calderita",0,0,0,0,0,0,0,0,0,0,0,0,0,0,0,0,0,NA,1910
"148",1101104,"Itapuã do Oeste","RO",-63.185833,-9.26,"Arquimedes 2",0,0,0,0,0,0,0,0,0,0,0,0,0,0,0,0,0,NA,1910
"149",1101104,"Itapuã do Oeste","RO",-63.161945,-9.259167,"Arquimedes 1",0,0,0,0,0,0,0,0,0,0,0,0,0,0,0,0,0,NA,1910
"150",1100205,"Porto Velho","RO",-63.906666,-8.768889,"Arigol?ndia",0,0,0,0,0,1,0,0,0,0,0,0,0,0,0,0,0,"u",52
"151",1100205,"Porto Velho","RO",-63.526669,-8.335278,"Arcoverde",0,0,0,0,0,0,1,0,0,1,0,0,0,0,0,0,1,"asusg",210
"152",1100809,"Candeias do Jamari","RO",-63.407501,-8.774167,"Ara?a",0,0,0,0,0,0,0,0,0,0,0,0,0,0,0,0,0,NA,1910
"153",1101104,"Itapuã do Oeste","RO",-63.1675,-9.284167,"Ant?nio",0,0,0,0,0,0,0,0,0,0,0,0,0,0,0,0,0,NA,1910
"154",1100205,"Porto Velho","RO",-64.051109,-8.861111,"?gua Azul",0,0,0,0,0,0,0,0,0,0,0,0,0,0,0,0,0,NA,1910
"155",1100205,"Porto Velho","RO",-63.904999,-8.783361,"5o Beck",0,0,0,0,0,1,0,0,0,0,0,0,0,0,0,0,0,"u",52
"156",1101104,"Itapuã do Oeste","RO",-63.063332,-9.243333,"Viuva 2",0,0,0,0,0,0,0,0,0,1,0,0,0,0,0,0,1,"usg",158
"157",1303809,"São Gabriel da Cachoeira","AM",-69.20333551,0.600004352,"Santa Maria III",1,0,0,0,0,0,0,0,0,1,0,0,0,0,0,0,0,"thus",223
"158",1303809,"São Gabriel da Cachoeira","AM",-69.20444444,0.602222222,"Santa Maria II",1,0,0,0,0,0,0,0,0,1,0,0,0,0,0,0,0,"thus",223
"159",1303809,"São Gabriel da Cachoeira","AM",-68.83398288,0.433021523,"Marabitana I",1,0,0,0,0,0,0,0,0,1,0,0,0,0,0,0,0,"thus",223
"160",1303809,"São Gabriel da Cachoeira","AM",-69.19694444,0.613333333,"Iauaret? II",1,0,0,0,0,0,0,0,0,1,0,0,0,0,0,0,0,"thus",223
"161",1303809,"São Gabriel da Cachoeira","AM",-68.83777778,0.447777778,"Clarindo",1,0,0,0,0,0,0,0,0,1,0,0,0,0,0,0,0,"thus",223
"162",1303809,"São Gabriel da Cachoeira","AM",-68.64527778,0.305555556,"S Jeronimo",1,0,0,0,0,0,0,0,0,1,0,0,0,0,0,0,0,"thus",223
"163",1303809,"São Gabriel da Cachoeira","AM",-68.66263889,0.286833333,"Z?gue-Z?gue",1,0,0,0,0,0,0,0,0,1,0,0,0,0,0,0,0,"thus",223
"164",1303809,"São Gabriel da Cachoeira","AM",-69.19694445,0.613055556,"Iauaret? I",1,0,0,0,0,0,0,0,0,1,0,0,0,0,0,0,0,"thus",223
"165",1303809,"São Gabriel da Cachoeira","AM",-69.21222222,0.603055556,"Santa Maria I",1,0,0,0,0,0,0,0,0,1,0,0,0,0,0,0,0,"thus",223
"166",1303809,"São Gabriel da Cachoeira","AM",-68.86932533,0.483034699,"Pupunha",1,0,0,0,0,0,0,0,0,1,0,0,0,0,0,0,0,"thus",223
"167",1303809,"São Gabriel da Cachoeira","AM",-68.90299049,0.504857339,"Idalino",1,0,0,0,0,0,0,0,0,1,0,0,0,0,0,0,0,"thus",223
"168",1303809,"São Gabriel da Cachoeira","AM",-69.20639444,0.584364472,"Fortaleza",1,0,0,0,0,0,0,0,0,1,0,0,0,0,0,0,0,"thus",223
"169",1302702,"Manicoré","AM",-61.558131,-5.831062,"?gua Azul",0,0,0,0,0,0,0,0,0,0,0,0,0,0,0,0,0,NA,1910
"170",1300300,"Autazes","AM",-59.2003174,-3.549034608,"Aldeia S?o Felix",1,0,0,0,0,0,0,0,0,1,0,0,0,0,0,0,0,"thus",223
"171",1300805,"Borba","AM",-59.632597,-4.38785,"Acar? (AM-BO-06)",0,0,0,0,0,0,0,0,0,0,1,0,0,0,0,0,0,"sd",288
"172",1302702,"Manicoré","AM",-60.98945804,-5.592485845,"Amparo",0,0,0,0,0,0,1,0,0,1,0,0,0,0,0,0,1,"asusg",210
"173",1303304,"Novo Aripuanã","AM",-60.393962,-5.222973,"Aripuan? 01",0,0,0,0,0,0,0,0,0,0,0,0,0,0,0,0,0,NA,1910
"174",1303304,"Novo Aripuanã","AM",-60.387572,-5.216886,"Aripuan? 02",0,0,0,0,0,0,0,0,0,0,0,0,0,0,0,0,0,NA,1910
"175",1303304,"Novo Aripuanã","AM",-60.394521,-5.447917,"Aripuan? 03",0,0,0,0,0,0,0,0,0,0,0,0,0,0,0,0,1,"g",857
"176",1303304,"Novo Aripuanã","AM",-60.41349989,-5.518186433,"Aripuan? 04",0,0,0,0,0,0,0,0,0,0,0,0,0,0,0,0,1,"g",857
"177",1302702,"Manicoré","AM",-61.05023519,-5.639338706,"Atininga 01",0,0,0,0,0,0,0,0,0,0,0,0,0,0,0,0,1,"g",857
"178",1302702,"Manicoré","AM",-61.036751,-5.629359,"Atininga 02",0,0,0,0,0,0,0,0,0,0,0,0,0,0,0,0,1,"g",857
"179",1300805,"Borba","AM",-59.368795,-4.04033,"Axinim (AM-CR-10)",0,0,0,0,0,0,0,0,0,0,0,0,0,0,0,0,0,NA,1910
"180",1302702,"Manicoré","AM",-61.67026139,-5.846324109,"Barreira do Capan?",0,0,0,0,0,0,0,0,0,0,0,0,0,0,0,0,1,"g",857
"181",1301704,"Humaitá","AM",-62.890976,-7.860032,"Barreira do Tambaqui",0,0,0,0,0,0,1,0,0,1,0,0,0,0,0,0,1,"asusg",210
"182",1302702,"Manicoré","AM",-61.47167908,-5.96602305,"Barro Alto",0,0,0,0,0,0,0,0,0,0,0,0,0,0,0,0,0,NA,1910
"183",1302702,"Manicoré","AM",-61.26536154,-5.706069133,"Boa Nova (AM-MC-24)",0,0,0,0,0,0,0,0,0,0,0,0,0,0,0,0,0,NA,1910
"184",1302702,"Manicoré","AM",-61.642838,-5.837956,"Boa Vista",0,0,0,0,0,0,0,0,0,0,0,0,0,0,0,0,0,NA,1910
"185",1300300,"Autazes","AM",-59.19378902,-3.558076648,"Boca da Estrada",0,0,0,0,0,0,0,0,0,0,0,0,0,0,0,0,0,NA,1910
"186",1302702,"Manicoré","AM",-61.327055,-5.861855,"Boca do Rio",0,0,0,0,0,0,0,0,0,0,0,0,0,0,0,0,0,NA,1910
"187",1300805,"Borba","AM",-59.881474,-4.478313,"Bom Futuro (AM-CR-12)",0,0,0,0,0,0,0,0,0,0,0,0,0,0,0,0,0,NA,1910
"188",1300805,"Borba","AM",-59.569217,-4.368576,"Borba (AM-BO-05)",0,0,0,0,0,0,0,0,0,0,0,0,0,0,0,0,0,NA,1910
"189",1302702,"Manicoré","AM",-61.009645,-5.534345,"Bracinho",0,0,0,0,0,0,1,0,0,1,0,0,0,0,1,0,0,"asusp",77
"190",1302702,"Manicoré","AM",-61.040272,-5.533842,"Bra?o Grande",0,0,0,0,0,0,1,0,0,1,0,0,0,0,1,0,0,"asusp",77
"191",1300805,"Borba","AM",-58.96,-4.127,"Vila Nova",1,0,0,0,0,0,0,0,0,1,0,0,0,0,0,0,0,"thus",223
"192",1300144,"Apuí","AM",-59.46375,-8.034388889,"Cachoeira dos Patos",0,0,0,0,0,0,0,0,0,1,0,0,0,0,0,0,1,"usg",158
"193",1302702,"Manicoré","AM",-61.460443,-5.810936,"Vista Alegre",0,0,0,0,0,0,0,0,0,0,0,0,0,0,0,0,0,NA,1910
"194",1302702,"Manicoré","AM",-60.799254,-5.474636,"Cachoeirinha (AM-MC-30)",0,0,0,0,0,0,1,0,0,1,0,0,0,0,0,0,1,"asusg",210
"195",1303304,"Novo Aripuanã","AM",-60.446308,-5.188051,"Cacoal",0,0,0,0,0,0,1,0,0,1,0,0,0,0,0,0,1,"asusg",210
"196",1300805,"Borba","AM",-59.417403,-4.255808,"Cai?ara (AM-BO-02)",0,0,0,0,0,0,0,0,0,0,0,0,0,0,0,0,0,NA,1910
"197",1300805,"Borba","AM",-59.1189,-4.0706,"Canum?",1,0,0,0,0,0,0,0,0,1,0,0,0,0,0,0,0,"thus",223
"198",1302702,"Manicoré","AM",-61.70556766,-5.851022181,"Capan?zinho",0,0,0,0,0,0,0,0,0,0,0,0,0,0,0,0,1,"g",857
"199",1300805,"Borba","AM",-60.190489,-4.893781,"Caran?",0,0,0,0,0,0,1,0,0,1,0,0,0,0,0,0,1,"asusg",210
"200",1300805,"Borba","AM",-59.552852,-4.340407,"Castanhal (AM-BO-04)",0,0,0,0,0,0,0,0,0,0,0,0,0,0,0,0,0,NA,1910
"201",1300805,"Borba","AM",-59.55035,-4.31984,"Castanhal 02",0,0,0,0,0,0,0,0,0,0,0,0,0,0,0,0,0,NA,1910
"202",1300144,"Apuí","AM",-60.18817127,-7.926402863,"Cemit?rio da Sama?ma",0,0,0,0,0,0,1,0,0,1,0,0,0,0,1,0,1,"asuspg",44
"203",1300300,"Autazes","AM",-59.21008479,-3.690015801,"Comunidade S?o Lu?s",0,0,0,0,0,0,0,0,0,0,0,0,0,0,1,0,0,"p",575
"204",1303304,"Novo Aripuanã","AM",-60.532375,-5.244793,"Concei??o (AM-NA-02)",0,0,0,0,0,0,1,0,0,1,0,0,0,0,0,0,1,"asusg",210
"205",1302702,"Manicoré","AM",-60.990286,-5.618688,"Curralinho (AM-MC-29)",0,0,0,0,0,0,0,0,0,0,1,0,0,0,0,0,1,"sdg",43
"206",1302702,"Manicoré","AM",-60.9621811,-5.577490168,"Del?cia",0,0,0,0,0,0,1,0,0,1,0,0,0,0,0,0,1,"asusg",210
"207",1300805,"Borba","AM",-59.1059,-4.0394,"Escola Agr?cola",0,0,0,0,0,0,1,0,0,1,0,0,0,0,1,0,0,"asusp",77
"208",1302702,"Manicoré","AM",-61.052347,-5.639027,"Escola Terra Preta",0,0,0,0,0,0,0,0,0,0,0,0,0,0,0,0,1,"g",857
"209",1302702,"Manicoré","AM",-61.424479,-5.923133,"Esperan?a",0,0,0,0,0,0,0,0,0,0,0,0,0,0,0,0,0,NA,1910
"210",1302702,"Manicoré","AM",-61.357894,-5.883786,"Estir?o (AM-MC-27)",0,0,0,0,0,0,0,0,0,0,0,0,0,0,0,1,0,"m",367
"211",1302702,"Manicoré","AM",-61.26108869,-5.682227437,"Fazenda I (AM-MC-25)",0,0,0,0,0,0,0,0,0,0,0,0,0,0,0,0,0,NA,1910
"212",1302702,"Manicoré","AM",-61.191928,-5.656971,"Fazenda II (AM-MC-26)",0,0,0,0,0,0,0,0,0,0,0,0,0,0,0,0,0,NA,1910
"213",1300805,"Borba","AM",-59.494297,-4.293316,"Flechal (AM-BO-03)",0,0,0,0,0,0,0,0,0,0,0,0,0,0,0,0,0,NA,1910
"214",1300805,"Borba","AM",-59.940536,-4.695211,"Floresta",0,0,0,0,0,0,0,0,0,0,1,0,0,0,0,0,0,"sd",288
"215",1300300,"Autazes","AM",-59.21828742,-3.740027513,"Furo do Sampaio",0,0,0,0,0,0,0,0,0,0,0,0,0,0,0,0,0,NA,1910
"216",1302702,"Manicoré","AM",-60.91038759,-5.568683005,"Genipapo",0,0,0,0,0,0,0,0,0,0,1,0,0,0,0,0,1,"sdg",43
"217",1300805,"Borba","AM",-59.77765,-4.37967,"Guajar? (AM-CR-11)",0,0,0,0,0,0,0,0,0,0,0,0,0,0,0,0,0,NA,1910
"218",1300805,"Borba","AM",-59.77938969,-4.33812161,"Guajar? 02",0,0,0,0,0,0,1,0,0,1,0,0,0,0,1,0,0,"asusp",77
"219",1300805,"Borba","AM",-59.7816,-4.3087,"Guajar? 03",0,0,0,0,0,0,1,0,0,1,0,0,0,0,1,0,0,"asusp",77
"220",1300805,"Borba","AM",-59.3524,-4.1455,"Guariba",0,0,0,0,0,0,0,0,0,0,0,0,0,1,0,0,0,"mf",383
"221",1303304,"Novo Aripuanã","AM",-59.971768,-4.897927,"Vista Alegre (AM-NA-06)",1,0,0,0,0,0,0,0,0,1,0,0,0,0,0,0,0,"thus",223
"222",1303106,"Nova Olinda do Norte","AM",-59.05112,-3.761411,"Ideal (AM-TU-02)",0,0,0,0,0,0,0,0,0,0,0,0,0,1,0,0,0,"mf",383
"223",1300144,"Apuí","AM",-60.03031886,-8.229375893,"Ilha das Caretas",0,0,0,0,0,0,0,0,0,0,0,0,0,0,0,0,1,"g",857
"224",1302702,"Manicoré","AM",-60.723325,-5.465304,"Itapinima (AM-NA-04)",0,0,0,0,0,0,0,0,0,0,0,0,0,0,0,0,1,"g",857
"225",1300805,"Borba","AM",-59.5475,-4.4082,"Jatuarana",0,0,0,0,0,0,0,0,0,0,0,0,0,0,0,0,0,NA,1910
"226",1300805,"Borba","AM",-60.175263,-4.893923,"Jos? Jo?o",0,0,0,0,0,0,1,0,0,0,0,0,0,0,0,0,0,"as",24
"227",1300805,"Borba","AM",-59.748365,-4.303214,"Lago do Piau?",0,0,0,0,0,0,1,0,0,1,0,0,0,0,1,0,0,"asusp",77
"228",1300805,"Borba","AM",-59.736348,-4.282369,"Lago do Piau? 02",0,0,0,0,0,0,1,0,0,1,0,0,0,0,1,0,0,"asusp",77
"229",1302702,"Manicoré","AM",-61.479924,-5.968711,"Liberdade",0,0,0,0,0,0,0,0,0,0,0,0,0,0,0,0,0,NA,1910
"230",1300805,"Borba","AM",-59.833648,-4.42151,"Madeirinha",0,0,0,0,0,0,0,0,0,0,0,0,0,0,0,0,0,NA,1910
"231",1300805,"Borba","AM",-58.90660083,-3.90567665,"Mam?o",0,0,0,0,0,0,1,0,0,1,0,0,0,0,0,0,1,"asusg",210
"232",1301704,"Humaitá","AM",-63.299,-7.492,"Margem do Ipixuna",0,0,0,0,0,0,0,0,0,0,0,0,0,0,0,0,0,NA,1910
"233",1303304,"Novo Aripuanã","AM",-60.574366,-5.286433,"Mariepaua",0,0,0,0,0,0,0,0,0,0,0,0,0,0,0,0,0,NA,1910
"234",1300805,"Borba","AM",-59.589757,-4.381555,"Matadouro (Urna de Borba)",0,0,0,0,0,0,0,0,0,0,0,0,0,0,0,0,0,NA,1910
"235",1300805,"Borba","AM",-60.246814,-4.921,"Mata-Mat?",0,0,0,0,0,0,1,0,0,1,0,0,0,0,0,0,1,"asusg",210
"236",1302702,"Manicoré","AM",-60.751207,-5.495889,"Mataur?",0,0,0,0,0,0,0,0,0,0,0,0,0,0,0,0,0,NA,1910
"237",1301704,"Humaitá","AM",-62.485423,-6.594729,"Monense (AM-MC-21)",0,0,0,0,0,0,0,0,0,0,1,0,0,0,0,0,1,"sdg",43
"238",1302702,"Manicoré","AM",-61.574866,-5.830336,"Monte Orebe",0,0,0,0,0,0,0,0,0,0,0,0,0,0,0,1,0,"m",367
"239",1302702,"Manicoré","AM",-61.588452,-5.835896,"Monte Si?o",0,0,0,0,0,0,0,0,0,0,0,0,0,0,0,1,0,"m",367
"240",1301704,"Humaitá","AM",-62.828548,-6.99647,"Muanense",0,0,0,0,0,0,0,0,0,0,0,0,0,0,0,0,0,NA,1910
"241",1300805,"Borba","AM",-60.22363692,-4.903684473,"Mura (AM-CR-13)",0,0,0,0,0,0,1,0,0,1,0,0,0,0,0,0,1,"asusg",210
"242",1302702,"Manicoré","AM",-60.734464,-5.405269,"Nazar? do Uru? (AM-NA-03)",0,0,0,0,0,0,0,0,0,0,1,0,0,0,0,0,0,"sd",288
"243",1303304,"Novo Aripuanã","AM",-60.409595,-5.499664,"Nova Olinda",0,0,0,0,0,0,0,0,0,0,0,0,0,0,0,0,1,"g",857
"244",1303304,"Novo Aripuanã","AM",-60.353299,-5.10049,"Novo Aripuan? (AM-NA-01)",0,0,0,0,0,0,0,0,0,0,0,0,0,0,0,0,0,NA,1910
"245",1300805,"Borba","AM",-59.92909,-4.574946,"Paran? do Mandi",0,0,0,0,0,0,0,0,0,0,0,0,0,0,0,0,0,NA,1910
"246",1300805,"Borba","AM",-59.889957,-4.483403,"Paran? do Mandi 02",0,0,0,0,0,0,0,0,0,0,0,0,0,0,0,0,0,NA,1910
"247",1302702,"Manicoré","AM",-60.720049,-5.362516,"Paran? do Uru?",0,0,0,0,0,0,0,0,0,0,0,0,0,0,0,0,1,"g",857
"248",1300144,"Apuí","AM",-59.8165,-8.237222222,"Cachoeira da Fortaleza",0,0,0,0,0,0,0,0,0,1,0,0,0,0,0,0,1,"usg",158
"249",1300144,"Apuí","AM",-60.1971057,-7.913972734,"Cachoeira da Sama?ma",0,0,0,0,0,0,1,0,0,1,0,0,0,0,0,0,1,"asusg",210
"250",1302702,"Manicoré","AM",-60.86879689,-5.541012602,"Porto Seguro",0,0,0,0,0,0,0,0,0,0,0,0,0,0,0,0,0,NA,1910
"251",1300805,"Borba","AM",-59.4471,-4.2246,"Puru Grande",0,0,0,0,0,0,1,0,0,1,0,0,0,0,1,0,0,"asusp",77
"252",1300805,"Borba","AM",-59.400013,-4.170811,"Puruzinho",0,0,0,0,0,0,1,0,0,1,0,0,0,0,1,0,0,"asusp",77
"253",1300805,"Borba","AM",-59.5537,-4.4835,"Puxurizal",0,0,0,0,0,0,1,0,0,0,0,0,0,1,0,0,0,"asmf",199
"254",1300805,"Borba","AM",-59.5164,-4.4395,"Puxurizal 02",0,0,0,0,0,0,1,0,0,0,0,0,0,1,0,0,0,"asmf",199
"255",1300300,"Autazes","AM",-59.19763987,-3.544257458,"Ramal 254",1,0,0,0,0,0,0,0,0,1,0,0,0,0,0,0,0,"thus",223
"256",1302702,"Manicoré","AM",-60.994231,-5.508264,"Repartimento",0,0,0,0,0,0,1,0,0,1,0,0,0,0,0,0,1,"asusg",210
"257",1300805,"Borba","AM",-59.88316051,-4.581185523,"Retiro (AM-BO-07)",0,0,0,0,0,0,1,0,0,1,0,0,0,0,1,0,0,"asusp",77
"258",1300300,"Autazes","AM",-59.060196,-3.650365,"Rosarinho (AM-CR-08)",0,0,0,0,0,0,0,0,0,0,0,0,0,0,0,0,0,NA,1910
"259",1303106,"Nova Olinda do Norte","AM",-59.159075,-3.933145,"Santa Ana (AM-TU-01)",0,0,0,0,0,0,0,0,0,0,0,0,0,0,0,0,0,NA,1910
"260",1302702,"Manicoré","AM",-60.607929,-5.297205,"Santa Rita",0,0,0,0,0,0,0,0,0,0,0,0,0,0,0,0,0,NA,1910
"261",1302702,"Manicoré","AM",-61.702472,-5.875905,"Santa Silvia",0,0,0,0,0,0,0,0,0,0,0,0,0,0,0,0,1,"g",857
"262",1300805,"Borba","AM",-59.323361,-4.048416,"S?o Felipe (AM-BO-01)",0,0,0,0,0,0,1,0,0,1,0,0,0,0,1,0,0,"asusp",77
"263",1303304,"Novo Aripuanã","AM",-60.427948,-5.327963,"S?o Felix do Aripuan?",0,0,0,0,0,0,0,0,0,0,0,0,0,0,0,0,0,NA,1910
"264",1303304,"Novo Aripuanã","AM",-60.438073,-5.348863,"S?o Francisco",0,0,0,0,0,0,0,0,0,0,0,0,0,0,0,0,0,NA,1910
"265",1303304,"Novo Aripuanã","AM",-60.057014,-4.912282,"Vista Nova",1,0,0,0,0,0,0,0,0,1,0,0,0,0,0,0,0,"thus",223
"266",1300805,"Borba","AM",-59.279009,-3.951004,"S?o Paulo (AM-CR-09)",0,0,0,0,0,0,0,0,0,0,0,0,0,0,0,0,1,"g",857
"267",1300805,"Borba","AM",-59.684477,-4.325801,"Vila Gomes",0,0,0,0,0,0,1,0,0,1,0,0,0,0,1,0,0,"asusp",77
"268",1303304,"Novo Aripuanã","AM",-60.276081,-5.033695,"Seringal Bel?m (AM-NA-05)",0,0,0,0,0,0,0,0,0,0,0,0,0,0,1,0,0,"p",575
"269",1100205,"Porto Velho","RO",-62.931558,-8.096378,"S?o Domingos",0,0,0,0,0,0,0,0,0,0,0,0,0,0,0,0,0,NA,1910
"270",1300144,"Apuí","AM",-60.19278198,-7.922943292,"Seringal da Sama?ma",0,0,0,0,0,0,0,0,0,1,0,0,0,0,1,0,1,"uspg",8
"271",1303304,"Novo Aripuanã","AM",-60.374444,-5.591747,"Severino",0,0,0,0,0,0,1,0,0,1,0,0,0,0,0,0,1,"asusg",210
"272",1302702,"Manicoré","AM",-61.09446219,-5.569862538,"Taboca (AM-MC-28)",0,0,0,0,0,0,1,0,0,1,0,0,0,0,1,0,0,"asusp",77
"273",1100205,"Porto Velho","RO",-62.929634,-8.090016,"Ponto prov?vel",0,0,0,0,0,0,0,0,0,0,0,0,0,0,0,0,0,NA,1910
"274",1303304,"Novo Aripuanã","AM",-60.410894,-5.533639,"Tasilva",0,0,0,0,0,0,1,0,0,1,0,0,0,0,0,0,1,"asusg",210
"275",1302702,"Manicoré","AM",-61.584732,-5.995145,"Terra Preta",0,0,0,0,0,0,0,0,0,0,0,0,0,0,0,0,0,NA,1910
"276",1300144,"Apuí","AM",-59.50003056,-8.55775,"Terra Preta da Castanheira",0,0,0,0,0,0,0,0,0,1,0,0,0,0,0,0,1,"usg",158
"277",1300144,"Apuí","AM",-60.03128251,-8.225357616,"Terra Preta das Caretas",0,0,0,0,0,0,0,0,0,0,0,0,0,0,0,0,1,"g",857
"278",1300144,"Apuí","AM",-59.40749237,-8.732759447,"Terra Preta do Anaj?",0,0,0,0,0,0,0,0,0,1,0,0,0,0,0,0,1,"usg",158
"279",1300144,"Apuí","AM",-59.41771674,-8.748763635,"Terra Preta do Campo Grande",0,0,0,0,0,0,0,0,0,1,0,0,0,0,0,0,1,"usg",158
"280",1300300,"Autazes","AM",-59.20381005,-3.69014591,"Terra Preta do Cavaquinho",0,0,0,0,0,0,0,0,0,0,0,0,0,1,0,0,0,"mf",383
"281",1300144,"Apuí","AM",-59.94647222,-8.306277778,"Terra Preta do Cujubim",0,0,0,0,0,0,0,0,0,1,0,0,0,0,0,0,1,"usg",158
"282",1300300,"Autazes","AM",-59.22225256,-3.760008964,"Terra Preta do Greg?rio",0,0,0,0,0,0,0,0,0,0,1,0,0,0,0,0,0,"sd",288
"283",1300144,"Apuí","AM",-59.52255556,-8.525777778,"Terra Preta do Guariba",0,0,0,0,0,0,0,0,0,1,0,0,0,0,0,0,1,"usg",158
"284",1302702,"Manicoré","AM",-61.039325,-5.652955,"Terra Preta do Limoeiro",0,0,0,0,0,0,0,0,0,0,0,0,0,0,0,0,1,"g",857
"285",1300300,"Autazes","AM",-59.22906151,-3.698033562,"Terra Preta do Nobre",1,0,0,0,0,0,0,0,0,1,0,0,0,0,0,0,0,"thus",223
"286",1300144,"Apuí","AM",-59.45814197,-8.677158138,"Terra Preta do Samuel",0,0,0,0,0,0,0,0,0,1,0,0,0,0,0,0,1,"usg",158
"287",1300144,"Apuí","AM",-59.86022662,-8.357192661,"Terra Preta do S?o Adriano",0,0,0,0,0,0,0,0,0,1,0,0,0,0,0,0,1,"usg",158
"288",1300144,"Apuí","AM",-59.47502778,-8.574,"Terra Preta do Tucum?",0,0,0,0,0,0,0,0,0,1,0,0,0,0,0,0,1,"usg",158
"289",1300300,"Autazes","AM",-59.24729563,-3.732974351,"Terra Preta Dona Nazira",1,0,0,0,0,0,0,0,0,1,0,0,0,0,0,0,0,"thus",223
"290",1300300,"Autazes","AM",-59.23037454,-3.716685152,"Terra Preta Sampainho",1,0,0,0,0,0,0,0,0,1,0,0,0,0,0,0,0,"thus",223
"291",1300805,"Borba","AM",-59.90993,-4.839073,"Traipu (AM-BO-08)",0,0,0,0,0,0,0,0,0,0,0,0,0,0,0,0,0,NA,1910
"292",1300805,"Borba","AM",-59.517671,-4.243067,"Trocana (AM-CR-14)",0,0,0,0,0,0,1,0,0,1,0,0,0,0,1,0,0,"asusp",77
"293",1300300,"Autazes","AM",-58.927358,-3.548538,"Urucurituba (AM-CR-07)",0,0,0,0,0,0,0,0,0,0,0,0,0,0,0,0,0,NA,1910
"294",1301308,"Codajás","AM",-62.0974488,-3.660444818,"antiga clareira 22",0,0,0,0,0,0,0,0,0,0,1,0,0,0,1,0,0,"sdp",37
"295",1300102,"Anori","AM",-61.64429333,-3.758329434,"Boa Vista",0,0,0,0,0,0,0,0,0,0,0,0,0,0,0,0,0,NA,1910
"296",1301209,"Coari","AM",-63.01322447,-3.979315697,"Jenipapo II",0,0,0,0,0,0,0,0,0,0,1,0,0,1,0,0,0,"sdmf",32
"297",1301308,"Codajás","AM",-62.27700022,-3.65500009,"Badaj?s",0,0,0,0,0,0,0,0,0,0,0,0,0,0,0,0,0,NA,1910
"298",1301209,"Coari","AM",-62.881,-3.907,"Cemit?rio Curupira",0,0,0,0,0,0,0,0,0,0,1,0,0,0,0,0,0,"sd",288
"299",1301209,"Coari","AM",-64.14584016,-4.383981176,"Clareira 9",0,0,0,0,0,0,0,0,0,0,0,0,0,0,0,0,0,NA,1910
"300",1302504,"Manacapuru","AM",-60.85529285,-3.237878981,"Cumaru",0,0,0,0,0,0,1,0,0,1,0,0,0,1,0,0,0,"asusmf",159
"301",1301209,"Coari","AM",-63.0383097,-3.98614918,"Esp?rito Santo",0,0,0,0,0,0,0,0,0,0,0,0,0,1,0,0,0,"mf",383
"302",1302504,"Manacapuru","AM",-60.70100127,-3.223000307,"Fazenda Concei??o",0,0,0,0,0,0,0,0,0,0,0,0,0,0,0,0,0,NA,1910
"303",1300086,"Anamã","AM",-61.42487871,-3.549032411,"Gravet?o",0,0,0,0,0,0,0,0,0,0,0,0,0,0,0,0,0,NA,1910
"304",1302504,"Manacapuru","AM",-60.426001,-3.221999,"Jacuruxi",0,0,0,0,0,0,0,0,0,0,0,0,0,0,0,0,1,"g",857
"305",1301209,"Coari","AM",-63.02770474,-3.922495974,"Jenipapo",0,0,0,0,0,0,0,0,0,0,1,0,0,0,0,0,0,"sd",288
"306",1301308,"Codajás","AM",-62.6672596,-3.748859613,"Lago do Jabuti",0,0,0,0,0,0,0,0,0,0,0,0,0,0,0,0,0,NA,1910
"307",1302504,"Manacapuru","AM",-61.12612913,-3.1310588,"Patau?",0,0,0,0,0,0,0,0,0,0,0,0,0,0,0,0,0,NA,1910
"308",1302504,"Manacapuru","AM",-60.64199999,-3.225999631,"Mandiocal",0,0,0,0,0,0,0,0,0,0,0,0,0,1,0,0,0,"mf",383
"309",1300086,"Anamã","AM",-61.417,-3.556,"Maria de Jesus",0,0,0,0,0,0,1,0,0,1,0,0,0,1,0,0,0,"asusmf",159
"310",1301852,"Iranduba","AM",-60.19234815,-3.210715718,"Minas Gerais",0,0,0,0,0,0,0,0,0,0,0,0,0,0,0,0,0,NA,1910
"311",1301209,"Coari","AM",-62.66680227,-3.83780691,"Naz?rio",0,0,0,0,0,0,0,0,0,0,0,0,0,0,0,0,0,NA,1910
"312",1302504,"Manacapuru","AM",-60.77393963,-3.237205533,"Nossa Senhora Aparecida",0,0,0,0,0,0,1,0,0,1,0,0,0,1,0,0,0,"asusmf",159
"313",1302504,"Manacapuru","AM",-60.76707086,-3.239021236,"Nossa Senhora do Perp?tuo Socorro",0,0,0,0,0,0,1,0,0,1,0,0,0,1,0,0,0,"asusmf",159
"314",1302504,"Manacapuru","AM",-60.77623516,-3.232048619,"Nossa Senhora Ros?rio",0,0,0,0,0,0,1,0,0,1,0,0,0,1,0,0,0,"asusmf",159
"315",1301209,"Coari","AM",-63.85907167,-4.3007836,"Nova Esperan?a",0,0,0,0,0,0,0,0,0,0,0,0,0,0,0,0,0,NA,1910
"316",1301852,"Iranduba","AM",-60.33500013,-3.201999967,"Pil?o",0,0,0,0,0,0,0,0,0,0,0,0,0,0,0,0,0,NA,1910
"317",1300086,"Anamã","AM",-61.71933787,-3.504120825,"Primavera",0,0,0,0,0,0,0,0,0,0,0,0,0,0,0,0,0,NA,1910
"318",1301209,"Coari","AM",-62.94198197,-3.878998465,"Santa Cruz",0,0,0,0,0,0,0,0,0,0,0,0,0,0,0,0,0,NA,1910
"319",1301209,"Coari","AM",-63.72699686,-4.251999056,"Santa F?",0,0,0,0,0,0,0,0,0,0,0,0,0,0,0,0,0,NA,1910
"320",1301209,"Coari","AM",-62.927,-3.894,"S?o Fancisco do Curuta?",0,0,0,0,0,0,0,0,0,0,1,0,0,0,0,0,0,"sd",288
"321",1300086,"Anamã","AM",-61.7235106,-3.513532815,"S?o Jorge I",0,0,0,0,0,0,0,0,0,0,0,0,0,0,0,0,0,NA,1910
"322",1300086,"Anamã","AM",-61.71795022,-3.505330881,"S?o Jorge II",0,0,0,0,0,0,0,0,0,0,0,0,0,0,0,0,0,NA,1910
"323",1301209,"Coari","AM",-63.134,-3.961,"S?o Paulo II",0,0,0,0,0,0,0,0,0,0,0,0,0,0,0,1,0,"m",367
"324",1302504,"Manacapuru","AM",-60.63700023,-3.223999617,"Seu Ant?nio",0,0,0,0,0,0,0,0,0,0,0,0,0,0,0,0,0,NA,1910
"325",1301209,"Coari","AM",-63.15185142,-3.929516732,"Terra Preta",0,0,0,0,0,0,0,0,0,0,0,0,0,0,0,0,0,NA,1910
"326",1300839,"Caapiranga","AM",-61.23999821,-3.249001518,"Zetota",0,0,0,0,0,0,0,0,0,0,0,0,0,0,0,0,0,NA,1910
"327",1301308,"Codajás","AM",-62.1097509,-3.6302219,"Monte Sinai",0,0,0,0,0,0,0,0,0,0,0,0,0,0,0,0,0,NA,1910
"328",1302504,"Manacapuru","AM",-60.91338959,-3.260259744,"Gremio",0,0,0,0,0,0,1,0,0,1,0,0,0,1,0,0,0,"asusmf",159
"329",1300086,"Anamã","AM",-61.72021434,-3.501734258,"Maciel",0,0,0,0,0,0,0,0,0,0,0,0,0,0,0,0,0,NA,1910
"330",1300839,"Caapiranga","AM",-61.2310364,-3.283477637,"Do Brega",0,0,0,0,0,0,0,0,0,0,0,0,0,1,0,0,0,"mf",383
"331",1301852,"Iranduba","AM",-60.17236191,-3.208094124,"Morro Alto",0,0,0,0,0,0,0,0,0,0,0,0,0,0,1,0,0,"p",575
"332",1301209,"Coari","AM",-65.04369383,-4.756053123,"Porto Evandro",0,0,0,0,0,0,0,0,0,0,1,0,0,0,0,0,1,"sdg",43
"333",1301209,"Coari","AM",-64.77725692,-4.735615291,"Clareira 2",0,0,0,0,0,0,0,0,0,0,0,0,0,0,0,0,0,NA,1910
"334",1301209,"Coari","AM",-64.57438775,-4.645637931,"Clareira 4",0,0,0,0,0,0,0,0,0,0,1,0,0,0,0,0,0,"sd",288
"335",1301209,"Coari","AM",-64.40542749,-4.539474901,"Clareira 6",0,0,0,0,0,0,0,0,0,0,0,0,0,0,0,0,0,NA,1910
"336",1301209,"Coari","AM",-63.30647606,-4.004493909,"Clareira 16",0,0,0,0,0,0,0,0,0,0,1,0,0,0,0,0,0,"sd",288
"337",1301209,"Coari","AM",-63.97910041,-4.311999733,"Clareira 10A",0,0,0,0,0,0,0,0,0,0,0,0,0,0,0,0,0,NA,1910
"338",1302504,"Manacapuru","AM",-60.64833056,-3.237597222,"Texas",0,0,0,0,0,0,0,0,0,0,0,0,0,0,0,0,0,NA,1910
"339",1300086,"Anamã","AM",-61.69368777,-3.572784418,"Mato Grosso",0,0,0,0,0,0,0,0,0,1,0,0,0,0,0,0,0,"us",101
"340",1302504,"Manacapuru","AM",-60.89509673,-3.170651973,"Seu Francisco",0,0,0,0,0,0,1,0,0,1,0,0,0,1,0,0,0,"asusmf",159
"341",1600501,"Oiapoque","AP",-51.77651944,3.928797222,"3 Mamelons",0,0,0,0,0,0,1,0,0,0,0,0,0,0,0,0,0,"as",24
"342",1600204,"Calçoene","AP",-51.11562778,2.627733333,"Abrigo Bandit",0,0,0,0,0,0,0,0,0,0,1,0,0,0,0,0,0,"sd",288
"343",1600402,"Mazagão","AP",-51.77219577,-0.306423096,"Abrigo das Caretas (AP-MZ-31)",0,0,0,0,0,0,1,0,0,1,0,0,0,0,0,1,1,"asusmg",41
"344",1600204,"Calçoene","AP",-51.11551111,2.627858333,"Abrigo Fome",0,0,0,0,0,0,0,0,0,0,1,0,0,0,0,0,0,"sd",288
"345",1300409,"Barcelos","AM",-61.49193138,-1.858303605,"JauMichael_Site1",0,0,0,0,0,0,0,0,1,0,0,0,0,0,0,0,0,"pi",144
"346",1300409,"Barcelos","AM",-61.47233504,-1.751104859,"JauMichael_Site2",0,0,0,0,0,0,0,0,1,0,0,0,0,0,0,0,0,"pi",144
"347",1300409,"Barcelos","AM",-61.47108584,-1.805490461,"JauMichael_Site3",0,0,0,0,0,0,0,0,1,0,0,0,0,0,0,0,0,"pi",144
"348",1300409,"Barcelos","AM",-61.44175931,-1.886577664,"JauMichael_Site4",0,0,0,0,0,0,0,0,1,0,0,0,0,0,0,0,0,"pi",144
"349",1303205,"Novo Airão","AM",-61.44789644,-1.948627213,"JauMichael_Site5",0,0,0,0,0,0,0,0,0,0,0,0,0,0,0,0,0,NA,1910
"350",1303205,"Novo Airão","AM",-61.44131985,-1.962689144,"JauMichael_Site6",0,0,0,0,0,0,0,0,1,0,0,0,0,0,0,0,0,"pi",144
"351",1303205,"Novo Airão","AM",-61.49217236,-1.971116994,"JauMichael_Site7",0,0,0,0,0,0,0,0,0,0,0,0,0,0,0,0,0,NA,1910
"352",1303205,"Novo Airão","AM",-61.52951714,-2.001697021,"JauMichael_Site8",0,0,0,0,0,0,0,0,1,0,0,0,0,0,0,0,0,"pi",144
"353",1303205,"Novo Airão","AM",-61.55984762,-2.052375778,"JauMichael_Site9",0,0,0,0,0,0,0,0,1,0,0,0,0,0,0,0,0,"pi",144
"354",1303205,"Novo Airão","AM",-61.56376956,-2.051191014,"JauMichael_Site10",0,0,0,0,0,0,0,0,1,0,0,0,0,0,0,0,0,"pi",144
"355",1303205,"Novo Airão","AM",-61.54117182,-2.026425461,"JauMichael_Site11",0,0,0,0,0,0,0,0,1,0,0,0,0,0,0,0,0,"pi",144
"356",1304005,"Silves","AM",-58.5230703,-2.786314734,"Areal do Seu Loiro",0,0,0,0,0,0,0,0,0,0,0,0,0,0,0,0,0,NA,1910
"357",1301902,"Itacoatiara","AM",-58.57456475,-3.11215875,"Boca do Aibu (AM-IT-34)",0,0,0,0,0,0,0,0,0,0,0,0,0,0,0,0,0,NA,1910
"358",1301902,"Itacoatiara","AM",-58.8092,-3.32546,"Boca do Santi?gua",0,0,0,0,0,0,0,0,0,0,0,0,0,0,0,0,0,NA,1910
"359",1301902,"Itacoatiara","AM",-58.56133227,-3.113146192,"Bom Socorro (AM-IT-35)",0,0,0,0,0,0,0,0,0,0,0,0,0,1,0,0,0,"mf",383
"360",1301902,"Itacoatiara","AM",-58.69663709,-3.010577461,"Caru",0,0,0,0,0,0,0,0,0,0,0,0,0,0,0,0,1,"g",857
"361",1302009,"Itapiranga","AM",-58.0567842,-2.763056182,"Enseada I",0,0,0,0,0,0,0,0,0,0,0,0,0,0,0,0,0,NA,1910
"362",1302009,"Itapiranga","AM",-58.05547006,-2.76217089,"Enseada II",0,0,0,0,0,0,0,0,0,0,0,0,0,1,0,0,0,"mf",383
"363",1301902,"Itacoatiara","AM",-58.6071,-3.12042,"Fonte Boa",0,0,0,0,0,0,0,0,0,0,0,0,0,0,0,0,0,NA,1910
"364",1301902,"Itacoatiara","AM",-58.57372702,-3.087091057,"Furo Grande",0,0,0,0,0,0,0,0,0,0,0,0,0,0,0,0,0,NA,1910
"365",1301902,"Itacoatiara","AM",-58.4754,-3.13433,"Guajar?",0,0,0,0,0,0,0,0,0,0,0,0,0,1,0,0,0,"mf",383
"366",1302009,"Itapiranga","AM",-58.0872763,-2.730030612,"Igarap? Grande",0,0,0,0,0,0,0,0,0,0,0,0,0,0,0,0,0,NA,1910
"367",1301902,"Itacoatiara","AM",-58.43916207,-3.151243149,"Jauary",0,0,0,0,0,0,0,0,0,0,0,0,0,0,0,0,0,NA,1910
"368",1302009,"Itapiranga","AM",-58.02107666,-2.683820296,"Madrub?",0,0,0,0,0,0,0,0,0,0,0,0,0,0,0,0,0,NA,1910
"369",1304005,"Silves","AM",-58.58554806,-2.882790716,"Moreira",0,0,0,0,0,0,0,0,0,0,0,0,0,0,0,0,1,"g",857
"370",1304005,"Silves","AM",-58.70226957,-2.816651951,"Panel?o",0,0,0,0,0,0,0,0,0,0,0,0,0,0,0,0,1,"g",857
"371",1301308,"Codajás","AM",-62.75666667,-3.637222196,"Acar? (AM-AN-01)",0,0,0,0,0,0,0,0,0,0,0,0,0,0,0,0,0,NA,1910
"372",1301902,"Itacoatiara","AM",-58.57537342,-3.081029376,"Pedra Chata (AM-IT-30)",0,0,0,0,0,0,0,0,0,0,0,0,0,0,0,0,0,NA,1910
"373",1301902,"Itacoatiara","AM",-58.45150428,-2.98967034,"Piqui?",0,0,0,0,0,0,0,0,0,0,0,0,0,0,0,0,0,NA,1910
"374",1301902,"Itacoatiara","AM",-58.65129875,-3.138733543,"Aldeia (AM-IT-37)",0,0,0,0,0,0,0,0,0,0,0,0,0,0,0,0,0,NA,1910
"375",1301902,"Itacoatiara","AM",-58.5779,-3.01965,"Santa B?rbara (AM-IT-26)",0,0,0,0,0,0,0,0,0,0,0,0,0,0,0,0,0,NA,1910
"376",1304005,"Silves","AM",-58.165183,-2.821522178,"Passarinho (AM-IT-20)",0,0,0,0,0,0,0,0,0,0,0,0,0,1,0,0,0,"mf",383
"377",1302405,"Lábrea","AM",-64.805556,-7.325508,"Aldeia Arapa?uzinho (AM-LA-12)",1,0,0,0,0,0,0,0,0,1,0,0,0,0,0,0,0,"thus",223
"378",1304005,"Silves","AM",-58.25761039,-2.699707862,"Santa Maria do Itapani",0,0,0,0,0,0,0,0,0,0,0,0,0,1,0,0,0,"mf",383
"379",1304005,"Silves","AM",-58.60895983,-2.869183384,"Santo Ant?nio do Aneb?",0,0,0,0,0,0,0,0,0,0,0,0,0,0,0,0,1,"g",857
"380",1304005,"Silves","AM",-58.19975635,-2.819297324,"Pont?o (AM-IT-06)",0,0,0,0,0,0,0,0,0,0,0,0,0,0,1,0,0,"p",575
"381",1301902,"Itacoatiara","AM",-58.50054435,-2.998702305,"Santo Ant?nio (AM-IT-24)",0,0,0,0,0,0,0,0,0,0,0,0,0,0,0,0,0,NA,1910
"382",1301902,"Itacoatiara","AM",-58.42583016,-3.045407732,"Santo Ant?nio do Cana?ari",0,0,0,0,0,0,0,0,0,0,0,0,0,0,1,0,0,"p",575
"383",1304005,"Silves","AM",-58.18801011,-2.827979331,"Santa Helena (AM-IT-07)",0,0,0,0,0,0,0,0,0,0,0,0,0,0,0,0,0,NA,1910
"384",1304005,"Silves","AM",-58.37402399,-2.763399285,"S?o Benedito",0,0,0,0,0,0,0,0,0,0,0,0,0,0,0,0,0,NA,1910
"385",1301902,"Itacoatiara","AM",-58.57515853,-3.026171013,"S?o Jos? (AM-IT-25)",0,0,0,0,0,0,0,0,0,0,0,0,0,0,0,0,0,NA,1910
"386",1301902,"Itacoatiara","AM",-58.6349,-3.12899,"S?o Jos? do Livramento",0,0,0,0,0,0,0,0,0,0,0,0,0,0,0,0,0,NA,1910
"387",1304005,"Silves","AM",-58.26977429,-2.829778686,"S?o Tom? do Jacu",0,0,0,0,0,0,0,0,0,0,0,0,0,0,0,0,0,NA,1910
"388",1304005,"Silves","AM",-58.65479566,-2.82389368,"Sete Irm?s do Aneb?",0,0,0,0,0,0,0,0,0,0,0,0,0,0,0,0,1,"g",857
"389",1302405,"Lábrea","AM",-64.81528,-7.352555,"Aldeia Idekor? (AM-LA-09)",1,0,0,0,0,0,0,0,0,1,0,0,0,0,0,0,0,"thus",223
"390",1301902,"Itacoatiara","AM",-58.572944,-3.056335,"Limorana (AM-IT-29)",0,0,0,0,0,0,0,0,0,0,0,0,0,0,0,0,0,NA,1910
"391",1301902,"Itacoatiara","AM",-58.57214307,-3.031113243,"Terra Preta (AM-IT-28)",0,0,0,0,0,0,0,0,0,0,0,0,0,0,0,1,0,"m",367
"392",1301902,"Itacoatiara","AM",-58.43883264,-3.040479366,"Terra Preta do Cana?ari",0,0,0,0,0,0,0,0,0,0,0,0,0,0,0,0,0,NA,1910
"393",1304005,"Silves","AM",-58.58536135,-2.80535038,"Viramundo",0,0,0,0,0,0,0,0,0,0,0,0,0,0,1,0,1,"pg",44
"394",1304005,"Silves","AM",-58.4775103,-2.971345866,"Cristo-rei (AM-IT-21)",0,0,0,0,0,0,0,0,0,0,0,0,0,0,0,0,0,NA,1910
"395",1304005,"Silves","AM",-58.32312739,-2.839197585,"Taperebatuba (AM-IT-12)",0,0,0,0,0,0,0,0,0,0,0,0,0,0,0,0,0,NA,1910
"396",1304005,"Silves","AM",-58.565422,-2.92264,"Macimini (AM-IT-23)",0,0,0,0,0,0,0,0,0,0,0,0,0,1,0,0,1,"mfg",12
"397",1304005,"Silves","AM",-58.20726,-2.84069,"Mucajatuba (AM-IT-08)",0,0,0,0,0,0,0,0,0,0,0,0,0,0,0,0,0,NA,1910
"398",1301902,"Itacoatiara","AM",-58.452675,-3.144865,"Col?nia",0,0,0,0,0,0,0,0,0,0,0,0,0,0,0,0,0,NA,1910
"399",1302405,"Lábrea","AM",-64.786356,-7.292901,"Aldeia S?o Jos? (AM-LA-10)",1,0,0,0,0,0,0,0,0,1,0,0,0,0,0,0,0,"thus",223
"400",1304005,"Silves","AM",-58.2467,-2.76395306,"Novo Horizonte do Casacuera",0,0,0,0,0,0,0,0,0,0,0,0,0,1,0,0,0,"mf",383
"401",1304005,"Silves","AM",-58.24246,-2.747495739,"Z? Bimbim do Itapani",0,0,0,0,0,0,0,0,0,0,0,0,0,0,0,0,0,NA,1910
"402",1304005,"Silves","AM",-58.22207,-2.81185,"Irmandade Terra Preta",0,0,0,0,0,0,0,0,0,0,0,0,0,0,0,0,0,NA,1910
"403",1301902,"Itacoatiara","AM",-58.793,-3.186,"Boa Esperan?a",0,0,0,0,0,0,1,0,0,1,0,0,0,1,0,0,0,"asusmf",159
"404",1301902,"Itacoatiara","AM",-58.571212,-3.078552,"Santa Maria (AM-IT-32)",0,0,0,0,0,0,0,0,0,0,0,0,0,0,0,0,0,NA,1910
"405",1301902,"Itacoatiara","AM",-58.75042,-3.197696,"Cinco Irm?os",0,0,0,0,0,0,1,0,0,1,0,0,0,1,0,0,0,"asusmf",159
"406",1304302,"Urucará","AM",-57.70376979,-2.474084245,"Amanari (AM-UR-21)",0,0,0,0,0,0,0,0,0,0,0,0,0,0,0,0,0,NA,1910
"407",1302009,"Itapiranga","AM",-58.26595672,-2.480529635,"Amasaro (AM-UR-10)",0,0,0,0,0,0,1,0,0,1,0,0,0,0,0,0,1,"asusg",210
"408",1304005,"Silves","AM",-58.38199,-2.88098,"Comunidade da Eva",0,0,0,0,0,0,0,0,0,0,0,0,0,0,0,0,0,NA,1910
"409",1301902,"Itacoatiara","AM",-58.79145364,-3.130049938,"Sang?ua",0,0,0,0,0,0,0,0,0,0,0,0,0,0,0,0,1,"g",857
"410",1301902,"Itacoatiara","AM",-58.62729737,-3.120848703,"Anajatuba (AM-IT-36)",0,0,0,0,0,0,0,0,0,0,0,0,0,1,0,0,0,"mf",383
"411",1302009,"Itapiranga","AM",-58.11803,-2.79299,"Jauara (AM-IT-19)",0,0,0,0,0,0,0,0,0,0,0,0,0,0,0,0,0,NA,1910
"412",1301902,"Itacoatiara","AM",-58.66680272,-3.151101087,"Boca do Xavier (AM-IT-38)",0,0,0,0,0,0,0,0,0,0,0,0,0,0,0,0,1,"g",857
"413",1304005,"Silves","AM",-58.17025,-2.82336,"Ponta Grossa (AM-IT-09)",0,0,0,0,0,0,0,0,0,0,0,0,0,0,0,0,0,NA,1910
"414",1304005,"Silves","AM",-58.496389,-2.9575,"Tauaquera (AM-IT-22)",0,0,0,0,0,0,0,0,0,0,0,0,0,1,0,0,0,"mf",383
"415",1301100,"Careiro","AM",-59.7216523,-3.3811955,"Dona Elsa",0,0,0,0,0,0,0,0,0,0,0,0,0,0,0,0,0,NA,1910
"416",1301100,"Careiro","AM",-59.806822,-3.380723,"Santa Maria",0,0,0,0,0,0,0,0,0,0,0,0,0,0,0,0,0,NA,1910
"417",1302553,"Manaquiri","AM",-60.4313051,-3.405543,"Seu Atevi (morava Dona Preta)",0,0,0,0,0,0,1,0,0,1,0,0,0,1,0,0,0,"asusmf",159
"418",1302553,"Manaquiri","AM",-60.4221318,-3.392494,"Seu Sab?",0,0,0,0,0,0,1,0,0,1,0,0,0,1,0,0,0,"asusmf",159
"419",1300631,"Beruri","AM",-61.4114,-4.7503,"S?tio Sapat?",0,0,0,0,0,0,1,0,0,1,0,0,0,0,0,0,1,"asusg",210
"420",1302702,"Manicoré","AM",-61.02071149,-5.580100125,"Verdum",0,0,0,0,0,0,0,0,0,0,1,0,0,0,0,0,0,"sd",288
"421",1400605,"São Luiz","RR",-60.131942,0.853811,"Pedra do Sol / Arara Vermelha",0,0,0,0,0,0,1,0,0,0,0,0,0,1,0,0,0,"asmf",199
"422",1400605,"São Luiz","RR",-60.130288,0.845895,"Bela Vista",0,0,0,0,0,0,1,0,0,0,0,0,0,1,0,0,0,"asmf",199
"423",1400308,"Mucajaí","RR",-60.84923314,2.329016965,"Jerusalem",0,0,0,0,0,0,0,0,0,0,1,0,0,0,0,0,0,"sd",288
"424",1400282,"Iracema","RR",-61.03932676,2.156359863,"Ecopark",0,0,0,0,0,0,0,0,0,0,0,0,0,0,0,0,0,NA,1910
"425",1400282,"Iracema","RR",-61.036146,2.15564143,"Goi?s",0,0,0,0,0,0,0,0,0,0,0,0,0,1,0,0,0,"mf",383
"426",1400209,"Caracaraí","RR",-60.97946913,1.91852435,"Pedra do Em?dio",0,0,0,0,0,0,0,0,0,0,0,0,0,0,0,0,0,NA,1910
"427",1400100,"Boa Vista","RR",-60.67348823,2.802629839,"Calung?",0,0,0,0,0,1,0,0,0,0,0,0,0,0,0,0,0,"u",52
"428",1400209,"Caracaraí","RR",-60.97691881,1.924678614,"Pedra do ? do Cojubim",0,0,0,0,0,0,0,0,0,0,0,0,0,0,0,0,0,NA,1910
"429",1400175,"Cantá","RR",-60.63508015,2.476465073,"Areal da Serra Grande (Areal do Confian?a 1)",0,0,0,0,0,0,0,0,0,0,0,0,0,0,1,0,0,"p",575
"430",1400100,"Boa Vista","RR",-60.64959171,2.839056134,"Iate Clube de Boa Vista",0,0,0,0,0,0,0,0,0,0,0,0,0,0,0,0,0,NA,1910
"431",1400159,"Bonfim","RR",-60.48162612,3.021780929,"Forte S?o Joaquim",0,0,0,0,0,0,0,0,0,0,0,0,0,0,0,0,0,NA,1910
"432",1400175,"Cantá","RR",-60.95815329,2.183206889,"Fazenda do Arlindo",0,0,0,0,0,0,0,0,0,0,0,0,0,0,0,0,0,NA,1910
"433",1400209,"Caracaraí","RR",-61.14195195,1.738611292,"Vista Alegre",0,0,0,0,0,0,0,0,0,0,0,0,0,0,0,0,0,NA,1910
"434",1400050,"Alto Alegre","RR",-61.19852568,3.065298598,"Biju A",0,0,0,0,0,0,0,0,0,0,0,0,0,0,0,1,0,"m",367
"435",1400175,"Cantá","RR",-60.66892945,2.423200541,"Ponta do Igarap? do Cachorro",0,0,0,0,0,0,0,0,0,0,0,0,0,0,0,0,0,NA,1910
"436",1400050,"Alto Alegre","RR",-61.19988212,3.06100566,"Fazenda Nova York",0,0,0,0,0,0,0,0,0,0,0,0,0,0,0,1,0,"m",367
"437",1400050,"Alto Alegre","RR",-61.19797676,3.065433309,"Biju B",0,0,0,0,0,0,0,0,0,0,0,0,0,0,0,1,0,"m",367
"438",1400050,"Alto Alegre","RR",-61.19618871,3.064254749,"Biju C",0,0,0,0,0,0,0,0,0,0,1,0,0,0,0,0,0,"sd",288
"439",1400209,"Caracaraí","RR",-61.00387123,1.930081349,"Cachoeira do Bem Querer",0,0,0,0,0,0,0,0,0,0,0,0,0,0,0,1,0,"m",367
"440",1304401,"Urucurituba","AM",-58.118,-3.139,"Arrozal",0,0,0,0,0,0,0,0,0,0,0,0,0,1,0,0,0,"mf",383
"441",1304401,"Urucurituba","AM",-58.11200014,-3.141999954,"Arrozal II",0,0,0,0,0,0,0,0,0,0,0,0,0,1,0,0,0,"mf",383
"442",1300508,"Barreirinha","AM",-56.82400002,-2.770000006,"Barreira do Andira",0,0,0,0,0,0,0,0,0,0,0,0,0,0,0,0,0,NA,1910
"443",1300680,"Boa Vista do Ramos","AM",-57.58899985,-2.969000528,"Boa Vista do Ramos",0,0,0,0,0,0,0,0,0,0,0,0,0,0,0,0,0,NA,1910
"444",1301902,"Itacoatiara","AM",-58.58312541,-3.109177909,"Boca do Frederico (AM-IT-33)",0,0,0,0,0,0,0,0,0,0,0,0,0,0,0,0,1,"g",857
"445",1304302,"Urucará","AM",-57.55168903,-2.381499964,"Bom Jesus do Urucar?",0,0,0,0,0,0,0,0,0,0,0,0,0,0,0,0,0,NA,1910
"446",1300680,"Boa Vista do Ramos","AM",-57.559,-3.073,"Bom Jesus das Palmeiras",0,0,0,0,0,0,0,0,0,0,1,0,0,0,0,0,0,"sd",288
"447",1304302,"Urucará","AM",-57.58388895,-2.372115343,"Bu?uzal",0,0,0,0,0,0,0,0,0,0,0,0,0,0,0,0,0,NA,1910
"448",1300508,"Barreirinha","AM",-57.416,-2.837,"Cameta do Ramos",0,0,0,0,0,0,0,0,0,0,0,0,0,0,0,0,0,NA,1910
"449",1302900,"Maués","AM",-57.85000002,-3.422055605,"Canaranas",0,0,0,0,0,0,0,0,0,0,0,1,0,0,0,0,0,"ou",4
"450",1301902,"Itacoatiara","AM",-58.57134432,-3.080680212,"Caretas (AM-IT-31)",0,0,0,0,0,0,0,0,0,0,0,0,0,0,0,0,0,NA,1910
"451",1304302,"Urucará","AM",-57.70999769,-2.531679121,"Castanhal (AM-UR-19)",0,0,0,0,0,0,0,0,0,0,0,0,0,0,0,0,0,NA,1910
"452",1304302,"Urucará","AM",-57.74086371,-2.540726156,"Cetru (AM-UR-20)",0,0,0,0,0,0,0,0,0,0,0,0,0,1,0,0,0,"mf",383
"453",1503002,"Faro","PA",-56.74829785,-2.173759011,"Cidade de Faro",0,0,0,0,0,0,0,0,0,0,0,0,0,0,0,0,0,NA,1910
"454",1503002,"Faro","PA",-56.87752707,-1.958977829,"Comunidade Felizardo",0,0,0,0,0,0,0,0,0,0,0,0,0,1,0,0,0,"mf",383
"455",1303007,"Nhamundá","AM",-56.76911219,-2.021101809,"Comunidade Monte Carmelo",0,0,0,0,0,0,0,0,0,0,0,0,0,0,0,0,0,NA,1910
"456",1304401,"Urucurituba","AM",-58.17425751,-3.163985976,"F?lix Vital",0,0,0,0,0,0,0,0,0,0,0,0,0,0,0,0,0,NA,1910
"457",1300508,"Barreirinha","AM",-57.00310956,-2.85698198,"Freguesia do Andir?",0,0,0,0,0,0,0,0,0,0,0,0,0,0,0,0,0,NA,1910
"458",1304005,"Silves","AM",-58.57168677,-3.007490568,"Igarap? do Quel? (AM-IT-27)",0,0,0,0,0,0,0,0,0,0,0,0,0,0,0,0,0,NA,1910
"459",1303403,"Parintins","AM",-56.47348479,-2.594994556,"Laguinho",0,0,0,0,0,0,1,0,0,0,0,0,0,1,0,0,0,"asmf",199
"460",1302900,"Maués","AM",-57.72196994,-3.393261946,"Mau?s",0,0,0,0,0,0,0,0,0,0,0,1,0,0,0,0,0,"ou",4
"461",1303007,"Nhamundá","AM",-56.713253,-2.190719,"Nhamunda",0,0,0,0,0,0,0,0,0,0,0,0,0,0,0,0,0,NA,1910
"462",1300508,"Barreirinha","AM",-57.27200006,-2.79400002,"Pedras",0,0,0,0,0,0,0,0,0,0,0,0,0,0,0,0,0,NA,1910
"463",1303957,"São Sebastião do Uatumã","AM",-57.93924129,-2.570058916,"Ponta Grossa",0,0,0,0,0,0,0,0,0,0,0,0,0,0,1,0,0,"p",575
"464",1303007,"Nhamundá","AM",-56.90832429,-1.984061349,"Praia do Espelho da Lua",0,0,0,0,0,0,0,0,0,0,0,0,0,0,0,0,0,NA,1910
"465",1303957,"São Sebastião do Uatumã","AM",-57.98762125,-2.373964307,"Santa Helena II",0,0,0,0,0,0,0,0,0,0,0,0,0,0,0,0,0,NA,1910
"466",1303403,"Parintins","AM",-56.44279772,-2.477048877,"Santa Rita",0,0,0,0,0,0,1,0,0,0,0,0,0,1,0,0,0,"asmf",199
"467",1300680,"Boa Vista do Ramos","AM",-57.63507603,-3.044646158,"Santana do Amassauari",0,0,0,0,0,0,0,0,0,0,1,0,0,0,0,0,0,"sd",288
"468",1303007,"Nhamundá","AM",-56.93656871,-2.375077494,"S?o Benedito",0,0,0,0,0,0,0,0,0,0,0,0,0,0,0,0,0,NA,1910
"469",1300680,"Boa Vista do Ramos","AM",-57.57208122,-2.918716476,"S?o Benedito do Ramos",0,0,0,0,0,0,0,0,0,0,0,0,0,0,1,0,0,"p",575
"470",1303403,"Parintins","AM",-56.45074091,-2.452879435,"S?o Paulo",0,0,0,0,0,0,0,0,0,0,0,0,0,0,0,0,0,NA,1910
"471",1300680,"Boa Vista do Ramos","AM",-57.554,-3.03,"S?o Sebasti?o da Terra Preta",0,0,0,0,0,0,0,0,0,0,0,0,0,0,0,0,0,NA,1910
"472",1303957,"São Sebastião do Uatumã","AM",-57.86954313,-2.571284515,"S?o Sebasti?o de Uatum? (AM-UR-01)",0,0,0,0,0,0,0,0,0,0,0,0,0,0,0,0,0,NA,1910
"473",1304302,"Urucará","AM",-57.5702396,-2.371613401,"Sol Nascente",0,0,0,0,0,0,0,0,0,0,0,0,0,0,0,0,0,NA,1910
"474",1302009,"Itapiranga","AM",-58.02999191,-2.746995464,"Tabocal (AM-UR-07)",0,0,0,0,0,0,0,0,0,0,0,0,0,0,0,0,0,NA,1910
"475",1503002,"Faro","PA",-56.60187529,-2.175426455,"Ubim",0,0,0,0,0,0,0,0,0,1,0,0,0,0,0,0,0,"us",101
"476",1304302,"Urucará","AM",-57.75625186,-2.537578121,"Urucar?",0,0,0,0,0,0,0,0,0,0,0,0,0,0,0,0,0,NA,1910
"477",1304401,"Urucurituba","AM",-58.156,-3.128,"Urucurituba",0,0,0,0,0,0,0,0,0,0,0,0,0,0,0,0,0,NA,1910
"478",1302900,"Maués","AM",-57.74360565,-3.411184103,"Vera Cruz",0,0,0,0,0,0,0,0,0,0,0,1,0,0,0,0,0,"ou",4
"479",1303403,"Parintins","AM",-56.76479086,-2.646940225,"Viana",0,0,0,0,0,0,0,0,0,0,0,0,0,0,0,0,0,NA,1910
"480",1303403,"Parintins","AM",-56.66573611,-2.613688889,"Vila Amaz?nia",0,0,0,0,0,1,1,0,0,0,0,0,0,1,0,0,0,"uasmf",3
"481",1300508,"Barreirinha","AM",-57.435,-2.85,"Vila C?ndida",0,0,0,0,0,0,0,0,0,0,0,0,0,0,0,0,0,NA,1910
"482",1300680,"Boa Vista do Ramos","AM",-57.54024808,-2.900711903,"Vila Manaus",0,0,0,0,0,0,0,0,0,0,0,0,0,1,0,0,0,"mf",383
"483",1301209,"Coari","AM",-64.40315107,-2.968832619,"Bela Vista do Castanho",0,0,0,0,0,0,1,0,0,1,0,0,0,0,0,0,1,"asusg",210
"484",1300904,"Canutama","AM",-64.254722,-6.246111,"Belo Monte",0,0,0,0,0,0,0,0,0,0,0,0,0,0,0,0,0,NA,1910
"485",1302801,"Maraã","AM",-64.746371,-2.485506,"Boa Esperan?a",0,0,0,0,0,0,1,0,0,1,0,0,0,0,0,0,1,"asusg",210
"486",1302801,"Maraã","AM",-64.8491031,-2.342277339,"Boa Vista do Aman?",0,0,0,0,0,0,1,0,0,1,0,0,0,0,0,0,1,"asusg",210
"487",1302801,"Maraã","AM",-64.71119953,-2.481595323,"Bom Jesus do Bar?",0,0,0,0,0,0,1,0,0,1,0,0,0,0,0,0,1,"asusg",210
"488",1302801,"Maraã","AM",-64.72992637,-2.505674341,"Cacoal do Aman?",0,0,0,0,0,0,1,0,0,1,0,0,0,0,0,0,1,"asusg",210
"489",1302801,"Maraã","AM",-64.80573651,-2.403335574,"Capoeirinha do Urumutum",0,0,0,0,0,0,1,0,0,1,0,0,0,0,0,0,1,"asusg",210
"490",1301209,"Coari","AM",-64.40227575,-2.973826229,"Dona Albina do Castanho",0,0,0,0,0,0,1,0,0,1,0,0,0,0,0,0,1,"asusg",210
"491",1302801,"Maraã","AM",-64.71685715,-2.549713098,"Fazenda Bacabinha",0,0,0,0,0,0,1,0,0,1,0,0,0,0,0,0,1,"asusg",210
"492",1302801,"Maraã","AM",-64.64650499,-2.659637115,"Igarap? da Pedra",0,0,0,0,0,0,1,0,0,1,0,0,0,0,0,0,1,"asusg",210
"493",1302801,"Maraã","AM",-64.75289833,-2.450499803,"Ita?ba do Aman?",0,0,0,0,0,0,1,0,0,1,0,0,0,0,0,0,1,"asusg",210
"494",1302801,"Maraã","AM",-64.60652378,-2.652680974,"Kalafate",0,0,0,0,0,0,1,0,0,1,0,0,0,0,0,0,1,"asusg",210
"495",1301209,"Coari","AM",-64.49815419,-2.759574159,"Jacar? do Castanho",0,0,0,0,0,0,1,0,0,1,0,0,0,0,0,0,1,"asusg",210
"496",1302801,"Maraã","AM",-64.79892573,-2.419928967,"Jos? Vieira do Urumutum",0,0,0,0,0,0,1,0,0,1,0,0,0,0,0,0,1,"asusg",210
"497",1302801,"Maraã","AM",-64.66264274,-2.567689551,"Maloca do Aman?",0,0,0,0,0,0,1,0,0,1,0,0,0,0,0,0,1,"asusg",210
"498",1302801,"Maraã","AM",-64.61001825,-2.718014637,"Maraj? do Aman?",0,0,0,0,0,0,1,0,0,1,0,0,0,0,0,0,1,"asusg",210
"499",1301209,"Coari","AM",-64.43803,-2.935588,"Monte Carmelo do Castanho",0,0,0,0,0,0,1,0,0,1,0,0,0,0,0,0,1,"asusg",210
"500",1301209,"Coari","AM",-64.38736827,-2.980284781,"Monte Si?o do Castanho",0,0,0,0,0,0,1,0,0,1,0,0,0,0,0,0,1,"asusg",210
"501",1302801,"Maraã","AM",-64.60494915,-2.659086119,"Monte Sinai",0,0,0,0,0,0,1,0,0,1,0,0,0,0,0,0,1,"asusg",210
"502",1302801,"Maraã","AM",-64.82997399,-2.363407758,"Nildo do Murutum",0,0,0,0,0,0,1,0,0,1,0,0,0,0,0,0,1,"asusg",210
"503",1302801,"Maraã","AM",-64.98725477,-2.313237865,"Pil?o do Juacaca",0,0,0,0,0,0,1,0,0,1,0,0,0,0,0,0,1,"asusg",210
"504",1302801,"Maraã","AM",-64.87511807,-2.279452439,"Ponta de Terra do Urumutum",0,0,0,0,0,0,1,0,0,1,0,0,0,0,0,0,1,"asusg",210
"505",1301209,"Coari","AM",-64.40271533,-2.972848867,"Ponta do Lim?o",0,0,0,0,0,0,1,0,0,1,0,0,0,0,0,0,1,"asusg",210
"506",1302801,"Maraã","AM",-64.60433598,-2.636821741,"Ressaca do Cacau",0,0,0,0,0,0,1,0,0,1,0,0,0,0,0,0,1,"asusg",210
"507",1302801,"Maraã","AM",-64.72390273,-2.442978147,"Santa Luzia do Bar?",0,0,0,0,0,0,1,0,0,1,0,0,0,0,0,0,1,"asusg",210
"508",1302801,"Maraã","AM",-64.63284412,-2.624286481,"Samauma do Capuru",0,0,0,0,0,0,1,0,0,1,0,0,0,0,0,0,1,"asusg",210
"509",1302801,"Maraã","AM",-65.01499467,-2.190673196,"S?o Bento do Urumutum",0,0,0,0,0,0,1,0,0,1,0,0,0,0,0,0,1,"asusg",210
"510",1301209,"Coari","AM",-64.49473107,-2.740803101,"S?o Jos? do Urini",0,0,0,0,0,0,1,0,0,1,0,0,0,0,0,0,1,"asusg",210
"511",1302801,"Maraã","AM",-64.59946952,-2.635987023,"Seu Miguel do Cacau",0,0,0,0,0,0,1,0,0,1,0,0,0,0,0,0,1,"asusg",210
"512",1302801,"Maraã","AM",-64.77941647,-2.433762447,"Seu Nonato",0,0,0,0,0,0,1,0,0,1,0,0,0,0,0,0,1,"asusg",210
"513",1302801,"Maraã","AM",-64.8766364,-2.306432674,"Seu Rufino do Urumutum",0,0,0,0,0,0,1,0,0,1,0,0,0,0,0,0,1,"asusg",210
"514",1303205,"Novo Airão","AM",-61.382252,-1.928461,"Air?o Velho",0,0,0,0,0,0,0,0,1,0,0,0,0,0,0,0,0,"pi",144
"515",1303205,"Novo Airão","AM",-61.429916,-1.9047,"Boca do Ja?",0,0,0,0,0,0,0,0,0,0,0,0,0,0,0,0,0,NA,1910
"516",1303205,"Novo Airão","AM",-61.197006,-2.121697,"Bom Jesus",0,0,0,0,0,0,0,0,0,0,0,0,0,0,0,0,0,NA,1910
"517",1303205,"Novo Airão","AM",-61.231705,-2.067621,"Castanho",0,0,0,0,0,0,0,0,1,0,0,0,0,0,0,0,0,"pi",144
"518",1303205,"Novo Airão","AM",-61.25444,-2.025004,"Igrejinha",0,0,0,0,0,0,0,0,1,0,0,0,0,0,0,0,0,"pi",144
"519",1303205,"Novo Airão","AM",-61.405117,-1.919333,"Pedral do Velho Air?o",0,0,0,0,0,0,0,0,0,0,0,0,0,0,0,0,0,NA,1910
"520",1303205,"Novo Airão","AM",-61.289974,-1.986609,"Mirituba ou Macaquinho",0,0,0,0,0,0,0,0,1,0,0,0,0,0,0,0,0,"pi",144
"521",1303205,"Novo Airão","AM",-61.299679,-1.963957,"Santo Elias",0,0,0,0,0,0,0,0,1,0,0,0,0,0,0,0,0,"pi",144
"522",1303205,"Novo Airão","AM",-61.224388,-2.117931,"Raimundo Neto",0,0,0,0,0,0,0,0,1,0,0,0,0,0,0,0,0,"pi",144
"523",1300409,"Barcelos","AM",-61.819416,-1.679278,"Terra Nova",0,0,0,0,0,0,0,0,1,0,0,0,0,0,0,0,1,"pig",38
"524",1302603,"Manaus","AM",-60.097111,-3.050066,"Alphaville",0,0,0,0,0,0,0,0,0,0,0,0,0,0,0,0,0,NA,1910
"525",1300409,"Barcelos","AM",-61.457581,-1.87563,"Vila Nunes",0,0,0,0,0,0,0,0,1,0,0,0,0,0,0,0,0,"pi",144
"526",1302603,"Manaus","AM",-60.210091,-2.968014,"Agrovila",0,0,0,0,0,0,0,0,0,1,0,0,0,0,0,0,1,"usg",158
"527",1300409,"Barcelos","AM",-62.919559,-0.48863,"Bacabal",0,0,0,0,0,0,0,0,0,0,0,0,0,0,0,0,0,NA,1910
"528",1300409,"Barcelos","AM",-63.540909,-0.52434,"Baturit?",0,0,0,0,0,0,0,0,0,0,0,0,0,0,0,0,0,NA,1910
"529",1303809,"São Gabriel da Cachoeira","AM",-69.200218,0.609227,"Cachoeira de Iauarete",0,0,0,0,0,0,0,0,0,0,0,0,0,0,0,0,0,NA,1910
"530",1303809,"São Gabriel da Cachoeira","AM",-68.624336,0.296487,"Cachoeira de Ipanor?",1,0,0,0,0,0,0,0,0,1,0,0,0,0,0,0,0,"thus",223
"531",1303601,"Santa Isabel do Rio Negro","AM",-64.107834,-0.105892,"Campinas do Rio Preto",0,0,0,0,0,0,0,0,0,1,0,0,0,0,0,0,0,"us",101
"532",1300409,"Barcelos","AM",-63.38448,-0.6024,"Cumaru",0,0,0,0,0,0,0,0,0,0,0,0,0,0,0,0,0,NA,1910
"533",1300409,"Barcelos","AM",-63.00795,-0.30872,"Elesb?o",0,0,0,0,0,0,0,0,0,0,0,0,0,0,0,0,0,NA,1910
"534",1300409,"Barcelos","AM",-63.879551,-0.235372,"Floresta",0,0,0,0,0,0,0,0,0,0,0,0,0,0,0,0,0,NA,1910
"535",1302603,"Manaus","AM",-60.206715,-3.008443,"Juli?o",0,0,0,0,0,0,0,0,0,1,0,0,0,0,0,0,1,"usg",158
"536",1301852,"Iranduba","AM",-60.335751,-3.146449,"Km 31",0,0,0,0,0,0,0,0,0,0,0,0,0,0,0,0,0,NA,1910
"537",1302603,"Manaus","AM",-60.178253,-3.028566,"Livramento",0,0,0,0,0,1,0,0,0,1,0,0,0,0,0,0,1,"uusg",1
"538",1301852,"Iranduba","AM",-60.247574,-3.199743,"Maracaj?",0,0,0,0,0,0,0,0,0,0,0,0,0,0,0,0,0,NA,1910
"539",1302603,"Manaus","AM",-60.096252,-3.034644,"Marina Rio Belo",0,0,0,0,0,1,0,0,0,0,0,0,0,0,0,0,0,"u",52
"540",1302603,"Manaus","AM",-60.163872,-3.021334,"Nossa Senhora de F?tima",0,0,0,0,0,0,0,0,0,0,0,0,0,0,0,0,0,NA,1910
"541",1300409,"Barcelos","AM",-62.904778,-0.413379,"Pai Raimundo",0,0,0,0,0,0,0,0,0,0,0,0,0,0,0,0,1,"g",857
"542",1300409,"Barcelos","AM",-62.964218,-0.3712,"Rom?o",0,0,0,0,0,0,0,0,0,0,0,0,0,0,0,0,0,NA,1910
"543",1300409,"Barcelos","AM",-62.773407,-0.366517,"Sama?ma",0,0,0,0,0,0,0,0,0,0,0,0,0,0,0,0,0,NA,1910
"544",1300409,"Barcelos","AM",-63.880161,-0.209473,"Santa Rita do Erere",0,0,0,0,0,0,0,0,0,0,0,0,0,0,0,0,0,NA,1910
"545",1301852,"Iranduba","AM",-60.320557,-3.132023,"Serra Baixa",0,0,0,0,0,0,0,0,0,0,0,0,0,1,0,0,0,"mf",383
"546",1302603,"Manaus","AM",-60.197716,-2.970452,"S?o Sebasti?o (Tarum?-Mirim)",0,0,0,0,0,0,0,0,0,0,0,0,0,0,0,1,0,"m",367
"547",1300409,"Barcelos","AM",-64.077873,-0.19208,"Tapera",0,0,0,0,0,0,0,0,0,0,0,0,0,0,0,0,0,NA,1910
"548",1300409,"Barcelos","AM",-61.553866,-1.573746,"Vila Nova II",0,0,0,0,0,0,1,0,0,1,0,0,0,0,0,0,1,"asusg",210
"549",1300409,"Barcelos","AM",-61.557343,-1.570724,"Vila Nova I",0,0,0,0,0,0,1,0,0,1,0,0,0,0,0,0,1,"asusg",210
"550",1300409,"Barcelos","AM",-62.224659,-1.765886,"Tapiira",0,0,0,0,0,0,0,0,1,0,0,0,0,0,0,0,1,"pig",38
"551",1301852,"Iranduba","AM",-60.338131,-3.146455,"Zenaide",0,0,0,0,0,0,0,0,0,0,0,0,0,0,0,0,0,NA,1910
"552",1300409,"Barcelos","AM",-61.635593,-1.457303,"Moura (AM-BL-03)",0,0,0,0,0,0,0,0,0,0,0,0,0,0,0,0,0,NA,1910
"553",1300409,"Barcelos","AM",-61.685028,-1.639387,"Lago das Pedras",0,0,0,0,0,0,1,0,0,1,0,0,0,0,0,0,1,"asusg",210
"554",1300409,"Barcelos","AM",-62.464405,-1.887669,"Manapana",0,0,0,0,0,0,0,0,1,0,0,0,0,0,0,0,1,"pig",38
"555",1300409,"Barcelos","AM",-62.824429,-1.713395,"Vista Alegre",0,0,0,0,0,0,0,0,1,0,0,0,0,0,0,0,0,"pi",144
"556",1300409,"Barcelos","AM",-62.537228,-1.878145,"Lago das Pombas",0,0,0,0,0,0,0,0,1,0,0,0,0,0,0,0,0,"pi",144
"557",1300409,"Barcelos","AM",-62.574318,-1.856726,"Floresta (Unini)",0,0,0,0,0,0,0,0,1,0,0,0,0,0,0,0,0,"pi",144
"558",1301852,"Iranduba","AM",-60.28027088,-3.228449553,"Z? Ricardo",0,0,0,0,0,0,0,0,0,0,0,0,0,0,0,0,0,NA,1910
"559",1301852,"Iranduba","AM",-60.16489943,-3.263454566,"Xavier",0,0,0,0,0,0,0,0,0,0,0,0,0,0,0,0,0,NA,1910
"560",1301852,"Iranduba","AM",-60.35065235,-3.179023278,"V? Dite",0,0,0,0,0,0,0,0,0,0,0,0,0,0,0,0,0,NA,1910
"561",1301852,"Iranduba","AM",-60.15092299,-3.138929769,"Vandercl?ia",0,0,0,0,0,0,0,0,0,0,0,0,0,0,0,1,0,"m",367
"562",1302603,"Manaus","AM",-60.2382943,-3.036310629,"Tup?",0,0,0,0,0,0,0,0,0,1,0,0,0,0,0,0,1,"usg",158
"563",1301852,"Iranduba","AM",-60.24769394,-3.155644597,"Tr?s Irm?os",0,0,0,0,0,0,0,0,0,0,0,0,0,0,0,0,0,NA,1910
"564",1301852,"Iranduba","AM",-60.1548956,-3.197418199,"Tracaj?",0,0,0,0,0,0,0,0,0,0,0,0,0,0,0,0,0,NA,1910
"565",1301852,"Iranduba","AM",-60.11181307,-3.203270747,"Tokihiro",0,0,0,0,0,0,0,0,0,0,0,0,0,0,0,0,0,NA,1910
"566",1301852,"Iranduba","AM",-60.342764,-3.189867,"Rubens",0,0,0,0,0,0,0,0,0,0,0,0,0,0,0,0,0,NA,1910
"567",1301852,"Iranduba","AM",-60.16115614,-3.229631612,"S?o Jos?",0,0,0,0,0,0,0,0,0,0,0,0,0,0,0,0,0,NA,1910
"568",1301852,"Iranduba","AM",-60.16278158,-3.27482125,"S?o Jo?o",0,0,0,0,0,0,0,0,0,0,0,0,0,0,0,0,0,NA,1910
"569",1301852,"Iranduba","AM",-60.12817098,-3.28463696,"Laguinho",0,0,0,0,0,0,0,0,0,0,0,0,0,0,0,0,0,NA,1910
"570",1302603,"Manaus","AM",-60.10351865,-3.041333068,"Praia dos Passaros",0,0,0,0,0,1,0,0,0,0,0,0,0,0,0,0,0,"u",52
"571",1302603,"Manaus","AM",-60.09854327,-3.026909985,"Praia Dourada",0,0,0,0,0,1,0,0,0,0,0,0,0,0,0,0,0,"u",52
"572",1302603,"Manaus","AM",-60.23593141,-3.081486993,"Paricatuba",0,0,0,0,0,0,0,0,0,0,0,0,0,0,0,0,0,NA,1910
"573",1301852,"Iranduba","AM",-60.16649539,-3.167316704,"Ponte Quebrada",0,0,0,0,0,0,0,0,0,0,0,0,0,0,0,0,0,NA,1910
"574",1301852,"Iranduba","AM",-60.33023466,-3.190225387,"Ponta do Gueguidem",0,0,0,0,0,0,0,0,0,0,0,0,0,0,0,0,0,NA,1910
"575",1301852,"Iranduba","AM",-60.34407292,-3.190730719,"Osvaldo",0,0,0,0,0,0,0,0,0,0,0,0,0,0,0,0,0,NA,1910
"576",1301852,"Iranduba","AM",-60.21289901,-3.270546051,"Nova Vida",0,0,0,0,0,0,0,0,0,0,0,0,0,0,0,0,0,NA,1910
"577",1301852,"Iranduba","AM",-60.17713832,-3.229893322,"Nova Esperan?a",0,0,0,0,0,0,0,0,0,0,0,0,0,0,0,0,0,NA,1910
"578",1301852,"Iranduba","AM",-60.15916853,-3.247364571,"Morro Queimado",0,0,0,0,0,0,0,0,0,0,0,0,0,0,0,0,0,NA,1910
"579",1301852,"Iranduba","AM",-60.17603941,-3.269404465,"Mateus",0,0,0,0,0,0,0,0,0,0,0,0,0,0,0,0,0,NA,1910
"580",1301852,"Iranduba","AM",-60.15870402,-3.267114,"Mafaldo",0,0,0,0,0,0,0,0,0,0,0,0,0,0,0,0,0,NA,1910
"581",1301852,"Iranduba","AM",-60.32799452,-3.191099867,"Macumbeiro",0,0,0,0,0,0,0,0,0,0,0,0,0,0,0,0,0,NA,1910
"582",1301852,"Iranduba","AM",-60.26903152,-3.229096552,"Lago Grande",0,0,0,0,0,0,0,0,0,0,0,0,0,0,0,0,0,NA,1910
"583",1301852,"Iranduba","AM",-60.19653679,-3.259965301,"Lago Sto Antonio",0,0,0,0,0,0,0,0,0,0,0,0,0,0,0,0,0,NA,1910
"584",1301852,"Iranduba","AM",-60.06323755,-3.237384334,"Lago Feliciano",0,0,0,0,0,0,0,0,0,0,0,0,0,1,0,0,0,"mf",383
"585",1301852,"Iranduba","AM",-60.15473967,-3.146664551,"Lago do Testa",0,0,0,0,0,0,0,0,0,0,0,0,0,0,0,0,0,NA,1910
"586",1301852,"Iranduba","AM",-60.34264401,-3.185688704,"Lago do Lim?o",0,0,0,0,0,0,0,0,0,0,0,0,0,0,0,0,0,NA,1910
"587",1301852,"Iranduba","AM",-60.33082829,-3.168903067,"J?nio",0,0,0,0,0,0,0,0,0,0,0,0,0,1,0,0,0,"mf",383
"588",1301852,"Iranduba","AM",-60.17276807,-3.240370059,"Ja?lson",0,0,0,0,0,0,0,0,0,0,0,0,0,0,0,0,0,NA,1910
"589",1301852,"Iranduba","AM",-60.19024097,-3.28397238,"Ilha",0,0,0,0,0,0,0,0,0,0,0,0,0,0,0,0,0,NA,1910
"590",1301852,"Iranduba","AM",-60.15271827,-3.142927175,"Igarap? do Testa II",0,0,0,0,0,0,0,0,0,0,0,0,0,0,0,0,0,NA,1910
"591",1301852,"Iranduba","AM",-60.15393491,-3.145080967,"Igarap? do Testa I",0,0,0,0,0,0,0,0,0,0,0,0,0,0,0,0,0,NA,1910
"592",1301852,"Iranduba","AM",-60.20451604,-3.274590055,"Hatahara",0,0,0,0,0,0,0,0,0,0,0,0,0,0,0,0,0,NA,1910
"593",1301852,"Iranduba","AM",-60.33126717,-3.190989666,"Gueguidem II",0,0,0,0,0,0,0,0,0,0,0,0,0,1,0,0,0,"mf",383
"594",1301852,"Iranduba","AM",-60.32288271,-3.168087186,"Germano",0,0,0,0,0,0,0,0,0,0,0,0,0,0,0,0,0,NA,1910
"595",1301852,"Iranduba","AM",-60.34719485,-3.186789808,"Furo do Av? Chico",0,0,0,0,0,0,0,0,0,1,0,0,0,0,0,0,0,"us",101
"596",1301852,"Iranduba","AM",-60.32042782,-3.200077569,"Furo do A?acu",0,0,0,0,0,0,0,0,0,0,0,0,0,0,0,0,0,NA,1910
"597",1301852,"Iranduba","AM",-60.17126394,-3.265148164,"Flor?ncio",0,0,0,0,0,0,0,0,0,0,0,0,0,0,0,0,0,NA,1910
"598",1301852,"Iranduba","AM",-60.21874734,-3.107317685,"F? em Deus",0,0,0,0,0,0,0,0,0,0,0,0,0,0,0,0,0,NA,1910
"599",1301852,"Iranduba","AM",-60.33941277,-3.189693837,"Fazenda S?o Jorge",0,0,0,0,0,0,0,0,0,0,0,0,0,0,0,0,0,NA,1910
"600",1301852,"Iranduba","AM",-60.0802754,-3.188715524,"Fazenda S?o Pedro",0,0,0,0,0,0,0,0,0,0,0,0,0,0,0,0,0,NA,1910
"601",1301852,"Iranduba","AM",-60.33028041,-3.192299832,"Evandro",0,0,0,0,0,0,0,0,0,0,0,0,0,1,0,0,0,"mf",383
"602",1301852,"Iranduba","AM",-60.17996661,-3.208367381,"Dona Stella",0,0,0,0,0,0,0,0,0,1,0,0,0,0,0,0,0,"us",101
"603",1301852,"Iranduba","AM",-60.33916375,-3.18714192,"Dona Rosa",0,0,0,0,0,0,0,0,0,0,0,0,0,0,0,0,0,NA,1910
"604",1301852,"Iranduba","AM",-60.23520249,-3.095160797,"Dona Irene",0,0,0,0,0,0,0,0,0,0,0,0,0,0,0,0,0,NA,1910
"605",1301852,"Iranduba","AM",-60.18202012,-3.190012497,"Comunidade S?o Sebasti?o",0,0,0,0,0,0,0,0,0,0,0,0,0,0,0,0,0,NA,1910
"606",1301852,"Iranduba","AM",-60.33484285,-3.10299654,"Chuva Braba",0,0,0,0,0,0,0,0,0,0,0,0,0,0,0,0,0,NA,1910
"607",1301852,"Iranduba","AM",-60.31641712,-3.214164847,"Cinco Unidos II",0,0,0,0,0,0,0,0,0,0,0,0,0,0,0,0,0,NA,1910
"608",1301852,"Iranduba","AM",-60.31459699,-3.215678248,"Cinco Unidos",0,0,0,0,0,0,0,0,0,0,0,0,0,1,0,0,0,"mf",383
"609",1301852,"Iranduba","AM",-60.17345004,-3.264323548,"Cavalcanti",0,0,0,0,0,0,0,0,0,0,0,0,0,0,0,0,0,NA,1910
"610",1302603,"Manaus","AM",-60.33717004,-3.038367517,"Carvoeiro",0,0,0,0,0,0,0,0,1,0,0,0,0,0,0,0,1,"pig",38
"611",1301852,"Iranduba","AM",-60.16280071,-3.245340969,"Carneiro",0,0,0,0,0,0,0,0,0,0,0,0,0,0,0,0,0,NA,1910
"612",1301852,"Iranduba","AM",-60.33720501,-3.185843722,"Caiarara",0,0,0,0,0,0,0,0,0,0,0,0,0,0,0,0,0,NA,1910
"613",1301852,"Iranduba","AM",-60.16850039,-3.167204709,"Cajueiros",0,0,0,0,0,0,0,0,0,0,0,0,0,1,0,0,0,"mf",383
"614",1301852,"Iranduba","AM",-60.28705224,-3.099738061,"Cachoeira do Castanho",0,0,0,0,0,0,0,0,0,0,0,0,0,0,0,0,0,NA,1910
"615",1301852,"Iranduba","AM",-60.29440244,-3.107209275,"Cachoeira",0,0,0,0,0,0,0,0,0,0,0,0,0,0,0,0,0,NA,1910
"616",1302603,"Manaus","AM",-60.258404,-3.081545,"Boca do Castanho",0,0,0,0,0,0,0,0,0,0,0,0,0,0,0,0,0,NA,1910
"617",1301852,"Iranduba","AM",-60.19225444,-3.280464935,"Boa Sorte",0,0,0,0,0,0,0,0,0,0,0,0,0,0,0,0,0,NA,1910
"618",1301852,"Iranduba","AM",-60.14292713,-3.288917954,"Bela Vista do Iranduba",0,0,0,0,0,0,0,0,0,0,0,0,0,0,0,0,0,NA,1910
"619",1301852,"Iranduba","AM",-60.24807757,-3.101561616,"Belo Horizonte",0,0,0,0,0,0,0,0,0,0,0,0,0,0,0,0,0,NA,1910
"620",1301852,"Iranduba","AM",-60.10265647,-3.265598859,"Barroso",0,0,0,0,0,0,0,0,0,0,0,0,0,0,0,0,0,NA,1910
"621",1301852,"Iranduba","AM",-60.2404385,-3.227644047,"Ariauzinho",0,0,0,0,0,0,0,0,0,0,0,0,0,0,0,0,0,NA,1910
"622",1301852,"Iranduba","AM",-60.36167863,-3.124284672,"Aria?",0,0,0,0,0,0,0,0,0,0,0,0,0,1,0,0,0,"mf",383
"623",1301852,"Iranduba","AM",-60.11312826,-3.192630715,"Areal Tomoda",0,0,0,0,0,0,0,0,0,1,0,0,0,0,0,0,0,"us",101
"624",1301852,"Iranduba","AM",-60.17919977,-3.231543392,"Areal do Maracaj?",0,0,0,0,0,0,0,0,0,0,0,0,0,0,0,0,0,NA,1910
"625",1301852,"Iranduba","AM",-60.17504363,-3.252585779,"Areal do Mangang?",0,0,0,0,0,0,0,0,0,0,0,0,0,0,0,0,0,NA,1910
"626",1301852,"Iranduba","AM",-60.18178966,-3.191485134,"Areal do Guedes",0,0,0,0,0,0,0,0,0,0,0,0,0,0,0,0,0,NA,1910
"627",1301852,"Iranduba","AM",-60.17227508,-3.262092862,"Areal Bela Vista",0,0,0,0,0,0,0,0,0,0,0,0,0,0,0,0,0,NA,1910
"628",1302603,"Manaus","AM",-60.39116445,-3.015002105,"Arara",0,0,0,0,0,0,0,0,1,0,0,0,0,0,0,0,1,"pig",38
"629",1301852,"Iranduba","AM",-60.33472785,-3.198334631,"Ant?nio Galo",0,0,0,0,0,0,0,0,0,0,0,0,0,0,0,0,0,NA,1910
"630",1301852,"Iranduba","AM",-60.18892071,-3.284230568,"Apol?nio",0,0,0,0,0,0,0,0,0,0,0,0,0,0,0,0,0,NA,1910
"631",1301852,"Iranduba","AM",-60.36567908,-3.095248949,"A?utuba",0,0,0,0,0,0,0,0,0,0,0,0,0,0,0,0,0,NA,1910
"632",1301852,"Iranduba","AM",-60.26791481,-3.16206794,"Acreano",0,0,0,0,0,0,0,0,0,0,0,0,0,1,0,0,0,"mf",383
"633",1302504,"Manacapuru","AM",-60.494287,-3.128225,"Acajatuba",0,0,0,0,0,0,1,0,0,0,0,0,0,0,0,0,0,"as",24
"634",1301159,"Careiro da Várzea","AM",-59.84310278,-3.191641667,"S?o Jo?o do Careiro da V?rzea",0,0,0,0,0,0,0,0,0,0,1,0,0,0,0,0,0,"sd",288
"635",1301852,"Iranduba","AM",-60.13431074,-3.287085987,"Lago do Iranduba",0,0,0,0,0,0,0,0,0,0,0,0,0,1,0,0,0,"mf",383
"636",1301852,"Iranduba","AM",-60.29262635,-3.264793288,"Cavalcante",0,0,0,0,0,0,0,0,0,0,0,0,0,0,0,0,0,NA,1910
"637",1301852,"Iranduba","AM",-60.25211111,-3.255277778,"Estrada Nova",0,0,0,0,0,0,0,0,0,0,0,0,0,0,0,0,0,NA,1910
"638",1302504,"Manacapuru","AM",-60.34713889,-3.276166667,"Jonas Costa",0,0,0,0,0,0,0,0,0,1,0,0,0,0,0,0,0,"us",101
"639",1301852,"Iranduba","AM",-60.23759722,-3.242936111,"Santa Helena",0,0,0,0,0,0,0,0,0,0,0,0,0,0,0,0,0,NA,1910
"640",1301852,"Iranduba","AM",-60.16021667,-3.288786111,"Xavier",0,0,0,0,0,0,0,0,0,0,0,0,0,1,0,0,0,"mf",383
"641",1302504,"Manacapuru","AM",-60.60326003,-3.343134356,"Apostolo Paulo I",0,0,0,0,0,0,0,0,0,0,0,0,0,0,0,0,0,NA,1910
"642",1302504,"Manacapuru","AM",-60.53470978,-3.306706749,"Barro Branco",0,0,0,0,0,0,0,0,0,0,0,0,0,0,0,0,0,NA,1910
"643",1302504,"Manacapuru","AM",-60.44716988,-3.299218725,"Bela Vista",0,0,0,0,0,0,0,0,0,0,0,0,0,1,0,0,0,"mf",383
"644",1302504,"Manacapuru","AM",-60.66673969,-3.351011213,"Caetano",0,0,0,0,0,0,1,0,0,0,0,0,0,1,0,0,0,"asmf",199
"645",1302504,"Manacapuru","AM",-60.52578159,-3.304461843,"Casa Velha",0,0,0,0,0,0,0,0,0,0,0,0,0,0,0,0,0,NA,1910
"646",1302504,"Manacapuru","AM",-61.14411833,-3.732664321,"Caviana",0,0,0,0,0,0,0,0,0,0,0,0,0,0,0,0,1,"g",857
"647",1302504,"Manacapuru","AM",-60.79857423,-3.659748036,"Comunidade 13 de Julho",0,0,0,0,0,0,1,0,0,1,0,0,0,1,0,0,0,"asusmf",159
"648",1302504,"Manacapuru","AM",-60.68929722,-3.241183333,"Costa da Concei??o",0,0,0,0,0,0,0,0,0,0,0,0,0,0,0,0,0,NA,1910
"649",1302504,"Manacapuru","AM",-60.51388611,-3.303258333,"Costa do Laranjal",0,0,0,0,0,0,0,0,0,0,0,0,0,0,0,0,0,NA,1910
"650",1302504,"Manacapuru","AM",-60.74510278,-3.180308333,"Dona Doca",0,0,0,0,0,0,0,0,0,0,0,0,0,0,0,0,1,"g",857
"651",1302504,"Manacapuru","AM",-60.49308889,-3.305283333,"Laranjal",0,0,0,0,0,0,0,0,0,0,0,0,0,0,0,0,0,NA,1910
"652",1302504,"Manacapuru","AM",-60.6561428,-3.281982184,"Manac?",0,0,0,0,0,0,0,0,0,0,0,0,0,0,0,0,0,NA,1910
"653",1302504,"Manacapuru","AM",-60.90628041,-3.697769808,"Mangueira",0,0,0,0,0,0,1,0,0,1,0,0,0,1,0,0,0,"asusmf",159
"654",1302504,"Manacapuru","AM",-60.73956371,-3.20074329,"Manuel",0,0,0,0,0,0,0,0,0,0,0,0,0,0,0,0,0,NA,1910
"655",1302504,"Manacapuru","AM",-60.59360423,-3.343282317,"Manuel Cardoso",0,0,0,0,0,0,1,0,0,0,0,0,0,1,0,0,0,"asmf",199
"656",1302504,"Manacapuru","AM",-60.66173532,-3.275761255,"Monte Cristo",0,0,0,0,0,0,0,0,0,0,0,0,0,0,0,0,0,NA,1910
"657",1302504,"Manacapuru","AM",-60.91702374,-3.70645756,"Para?so",0,0,0,0,0,0,1,0,0,1,0,0,0,1,0,0,0,"asusmf",159
"658",1302504,"Manacapuru","AM",-60.7324,-3.457858334,"Paru?",0,0,0,0,0,0,0,0,0,0,0,0,0,0,0,0,0,NA,1910
"659",1302504,"Manacapuru","AM",-60.88917778,-3.687352778,"Ponta da Usina",0,0,0,0,0,0,1,0,0,1,0,0,0,1,0,0,0,"asusmf",159
"660",1302504,"Manacapuru","AM",-61.07194197,-3.692415198,"Repartimento",0,0,0,0,0,0,1,0,0,0,0,0,0,1,0,0,0,"asmf",199
"661",1302504,"Manacapuru","AM",-60.74250556,-3.1837,"Reserva Tikuna",0,0,0,0,0,0,0,0,0,0,0,0,0,0,0,0,0,NA,1910
"662",1302504,"Manacapuru","AM",-60.74236062,-3.188455117,"Reserva Tikuna I",0,0,0,0,0,0,0,0,0,0,1,0,0,0,0,0,0,"sd",288
"663",1302504,"Manacapuru","AM",-60.94172226,-3.712337853,"Sama?ma",0,0,0,0,0,0,1,0,0,1,0,0,0,1,0,0,0,"asusmf",159
"664",1302504,"Manacapuru","AM",-60.676875,-3.358902778,"S?o Francisco",0,0,0,0,0,0,0,0,0,0,0,0,0,0,0,0,0,NA,1910
"665",1302504,"Manacapuru","AM",-60.65830507,-3.277277995,"Vale Verde",0,0,0,0,0,0,0,0,0,0,0,0,0,0,0,0,0,NA,1910
"666",1300086,"Anamã","AM",-61.59690524,-3.596888471,"Ajar?",0,0,0,0,0,0,0,0,0,1,0,0,0,0,0,0,1,"usg",158
"667",1300086,"Anamã","AM",-61.50726439,-3.479332843,"Arixi",0,0,0,0,0,0,0,0,0,0,0,0,0,0,0,0,0,NA,1910
"668",1301308,"Codajás","AM",-62.14448605,-3.696833329,"Boa Vista",0,0,0,0,0,0,0,0,0,0,0,0,0,0,0,0,0,NA,1910
"669",1300086,"Anamã","AM",-61.4868812,-3.634987181,"Costa do Gabriel",0,0,0,0,0,0,1,0,0,1,0,0,0,1,0,0,0,"asusmf",159
"670",1300086,"Anamã","AM",-61.32064722,-3.587877777,"Cuia",0,0,0,0,0,0,1,0,0,1,0,0,0,1,0,0,0,"asusmf",159
"671",1300086,"Anamã","AM",-61.70628889,-3.528233333,"Jacurutu",0,0,0,0,0,0,0,0,0,0,0,0,0,0,0,0,1,"g",857
"672",1302504,"Manacapuru","AM",-61.27331944,-3.581369444,"Jardins do ?den",0,0,0,0,0,0,1,0,0,1,0,0,0,1,0,0,0,"asusmf",159
"673",1300086,"Anamã","AM",-61.49519444,-3.596944444,"Joar?",0,0,0,0,0,0,0,0,0,1,0,0,0,0,0,0,0,"us",101
"674",1302504,"Manacapuru","AM",-61.22785,-3.635102778,"Novo Oriente",0,0,0,0,0,0,1,0,0,1,0,0,0,1,0,0,0,"asusmf",159
"675",1300086,"Anamã","AM",-61.64012222,-3.546011111,"Ruy",0,0,0,0,0,0,0,0,0,0,0,0,0,0,0,0,0,NA,1910
"676",1300086,"Anamã","AM",-61.57976938,-3.510159263,"S?o Pedro",0,0,0,0,0,0,0,0,0,0,0,0,0,0,0,0,0,NA,1910
"677",1302504,"Manacapuru","AM",-61.31275,-3.617361111,"Si?o",0,0,0,0,0,0,1,0,0,1,0,0,0,0,1,0,0,"asusp",77
"678",1300102,"Anori","AM",-61.66463889,-3.742138889,"Bairro Jap?o",0,0,0,0,0,0,0,0,0,0,0,0,0,1,0,0,0,"mf",383
"679",1300102,"Anori","AM",-61.62045559,-3.8138009,"Costa do Goiabera",0,0,0,0,0,0,0,0,0,1,0,0,0,0,1,0,0,"usp",13
"680",1300102,"Anori","AM",-61.65858333,-3.741611111,"Manoel Nunes",0,0,0,0,0,0,0,0,0,0,0,0,0,0,0,0,0,NA,1910
"681",1300102,"Anori","AM",-61.65076607,-3.75406604,"Morada Nova",0,0,0,0,0,0,0,0,0,0,0,0,0,0,0,0,0,NA,1910
"682",1300102,"Anori","AM",-61.73479589,-3.847081048,"Seu L?zaro",0,0,0,0,0,0,0,0,0,0,1,0,0,0,0,0,0,"sd",288
"683",1301308,"Codajás","AM",-62.28777875,-3.655444683,"Adelson",0,0,0,0,0,0,0,0,0,0,0,0,0,0,0,0,0,NA,1910
"684",1301308,"Codajás","AM",-62.273,-3.644055556,"Atoamirim",0,0,0,0,0,0,0,0,0,0,1,0,0,0,0,0,0,"sd",288
"685",1300086,"Anamã","AM",-61.51958333,-3.47375,"Boa Vista",0,0,0,0,0,0,0,0,0,0,0,0,0,0,0,0,1,"g",857
"686",1301308,"Codajás","AM",-62.35127778,-3.587666667,"Caiana",0,0,0,0,0,0,0,0,0,0,1,0,0,1,1,0,0,"sdmfp",2
"687",1301308,"Codajás","AM",-62.29687532,-3.663307213,"Daniel",0,0,0,0,0,0,0,0,0,0,0,0,0,0,0,0,0,NA,1910
"688",1301308,"Codajás","AM",-62.13215397,-3.81215604,"Ena",0,0,0,0,0,0,0,0,0,0,0,0,0,0,0,1,0,"m",367
"689",1301308,"Codajás","AM",-62.31585269,-3.663167196,"Furo do Ubim",0,0,0,0,0,0,0,0,0,0,0,0,0,0,0,0,0,NA,1910
"690",1301308,"Codajás","AM",-62.28341667,-3.631222223,"Iracema",0,0,0,0,0,0,0,0,0,0,1,0,0,0,1,0,0,"sdp",37
"691",1301308,"Codajás","AM",-62.139725,-3.705530556,"Loro",0,0,0,0,0,0,0,0,0,0,0,0,0,0,0,0,0,NA,1910
"692",1301308,"Codajás","AM",-62.27880556,-3.657666667,"Nossa Senhora de F?tima",0,0,0,0,0,0,0,0,0,0,0,0,0,1,0,0,0,"mf",383
"693",1301308,"Codajás","AM",-62.33136788,-3.622308217,"Santa Luzia",0,0,0,0,0,0,0,0,0,0,1,0,0,0,0,0,0,"sd",288
"694",1301209,"Coari","AM",-62.77348708,-3.834045319,"Aldo",0,0,0,0,0,0,0,0,0,0,1,0,0,0,0,0,0,"sd",288
"695",1301209,"Coari","AM",-63.29127778,-3.930194444,"Ar?na?",0,0,0,0,0,0,0,0,0,0,0,0,0,0,0,0,1,"g",857
"696",1301209,"Coari","AM",-63.61752731,-4.09291816,"Barrac?o Queimado",0,0,0,0,0,0,0,0,0,0,0,0,0,0,0,1,0,"m",367
"697",1301209,"Coari","AM",-63.39569444,-4.214027778,"Boa Vista",0,0,0,0,0,0,0,0,0,0,1,0,0,0,0,0,0,"sd",288
"698",1301209,"Coari","AM",-63.35494141,-3.930083362,"Cajuiru",1,0,0,0,0,0,0,0,0,1,0,0,0,0,0,0,0,"thus",223
"699",1301308,"Codajás","AM",-62.5752532,-3.850647266,"Domingos",0,0,0,0,0,0,0,0,0,0,1,0,0,0,0,0,0,"sd",288
"700",1301308,"Codajás","AM",-62.55202761,-3.802000284,"Elias",0,0,0,0,0,0,0,0,0,0,1,0,0,0,0,0,0,"sd",288
"701",1301209,"Coari","AM",-63.14165306,-3.983948121,"Fazenda Nunes",0,0,0,0,0,0,0,0,0,0,0,0,0,0,0,0,0,NA,1910
"702",1301209,"Coari","AM",-63.30647478,-4.004494543,"Clareira 16",0,0,0,0,0,0,0,0,0,0,1,0,0,0,0,0,0,"sd",288
"703",1301209,"Coari","AM",-62.62905768,-3.954432073,"Lago Camar?",0,0,0,0,0,0,0,0,0,0,0,0,0,0,0,0,0,NA,1910
"704",1301209,"Coari","AM",-63.58159289,-4.085797812,"Marizal",0,0,0,0,0,0,0,0,0,0,0,0,0,0,0,0,0,NA,1910
"705",1301209,"Coari","AM",-63.59208823,-4.085645374,"Moreira",0,0,0,0,0,0,0,0,0,0,0,0,0,0,0,0,0,NA,1910
"706",1301209,"Coari","AM",-63.65063165,-4.12334082,"Pau D'Arco",0,0,0,0,0,0,0,0,0,0,0,0,0,0,0,0,0,NA,1910
"707",1301209,"Coari","AM",-63.39590797,-4.122991587,"Praia do Andir?",0,0,0,0,0,0,0,0,0,0,0,0,0,0,0,0,0,NA,1910
"708",1301209,"Coari","AM",-63.40870179,-4.110019473,"Praia do Coari",0,0,0,0,0,0,0,0,0,0,0,0,0,0,0,0,0,NA,1910
"709",1301209,"Coari","AM",-63.3948095,-4.16482008,"Praia do Coari I",0,0,0,0,0,0,0,0,0,0,1,0,0,0,0,0,0,"sd",288
"710",1301209,"Coari","AM",-63.34377796,-4.016889251,"Santa Maria",1,0,0,0,0,0,0,0,0,1,0,0,0,0,0,0,0,"thus",223
"711",1301209,"Coari","AM",-63.13767887,-3.974450036,"S?o Jos? do Sa?ba",0,0,0,0,0,0,0,0,0,0,0,0,0,0,0,0,0,NA,1910
"712",1301209,"Coari","AM",-63.17915492,-3.943230575,"S?o Pedro da Vila Lira",0,0,0,0,0,0,0,0,0,0,0,0,0,0,0,0,1,"g",857
"713",1301209,"Coari","AM",-63.13388889,-3.950027778,"S?o Pedro do Tauna",0,0,0,0,0,0,0,0,0,0,0,0,0,0,0,0,0,NA,1910
"714",1301209,"Coari","AM",-62.59233917,-3.919125343,"S?o Raimundo do Miriti",0,0,0,0,0,0,0,0,0,0,0,0,0,0,0,0,0,NA,1910
"715",1301209,"Coari","AM",-63.68405902,-4.130295738,"Tapera",0,0,0,0,0,0,0,0,0,0,0,0,0,0,0,0,0,NA,1910
"716",1301209,"Coari","AM",-62.59017348,-3.857549356,"Lauro Sodr?",0,0,0,0,0,0,0,0,0,0,0,0,0,0,0,0,0,NA,1910
"717",1301209,"Coari","AM",-63.42292642,-4.116040264,"Santa Luzia do Buiu?uzinho",0,0,0,0,0,0,0,0,0,0,0,0,0,0,0,0,0,NA,1910
"718",1302603,"Manaus","AM",-59.97666667,-2.9775,"Areia Branca",0,0,0,0,0,0,0,0,0,0,0,0,0,0,0,0,0,NA,1910
"719",1302603,"Manaus","AM",-59.94805556,-3.142222222,"Base Naval",0,0,0,0,0,1,0,0,0,0,0,0,0,0,0,0,0,"u",52
"720",1302603,"Manaus","AM",-60.42170384,-2.720826165,"Boa Esperan?a",0,0,0,0,0,0,0,0,1,0,0,0,0,0,0,0,1,"pig",38
"721",1302603,"Manaus","AM",-60.32646426,-2.664580716,"Barreirinha",0,0,0,0,0,0,0,0,1,0,0,0,0,0,0,0,1,"pig",38
"722",1302603,"Manaus","AM",-60.25503703,-3.048660622,"Boca do Tup?",0,0,0,0,0,0,0,0,0,0,0,0,0,0,0,0,1,"g",857
"723",1302603,"Manaus","AM",-60.28294388,-3.053648618,"Carvoaria",0,0,0,0,0,0,0,0,0,0,0,0,0,0,0,0,1,"g",857
"724",1302603,"Manaus","AM",-60.39970564,-3.014253812,"Comunidade do Arara",0,0,0,0,0,0,0,0,1,0,0,0,0,0,0,0,1,"pig",38
"725",1302603,"Manaus","AM",-59.90638893,-3.114444441,"Daisaku Ikeda",0,0,0,0,0,0,0,0,0,0,0,0,0,0,0,0,0,NA,1910
"726",1302603,"Manaus","AM",-59.9891661,-2.984999706,"Estrada Santa Etelvina",0,0,0,0,0,0,0,0,0,0,0,0,0,0,0,0,0,NA,1910
"727",1302603,"Manaus","AM",-59.97666667,-2.977777778,"Fortaleza",0,0,0,0,0,0,0,0,0,0,0,0,0,0,0,0,0,NA,1910
"728",1302603,"Manaus","AM",-60.40694444,-3.0075,"Igarap? do Jaraqui",0,0,0,0,0,0,0,0,1,0,0,0,0,0,0,0,1,"pig",38
"729",1302603,"Manaus","AM",-59.97305556,-3.109166667,"Japiim",0,0,0,0,0,1,0,0,0,0,0,0,0,0,0,0,0,"u",52
"730",1302603,"Manaus","AM",-59.90333463,-3.11111252,"Lajes (AM-MA-01)",0,0,0,0,0,0,0,0,0,0,0,0,0,0,0,0,0,NA,1910
"731",1302603,"Manaus","AM",-60.02805556,-3.133611111,"Manaus",0,0,0,0,0,1,0,0,0,0,0,0,0,0,0,0,0,"u",52
"732",1302603,"Manaus","AM",-60.52218451,-2.811001883,"Nilton Lins",0,0,0,0,0,0,0,0,0,0,0,0,0,0,0,0,0,NA,1910
"733",1302603,"Manaus","AM",-60.5025,-2.821388889,"Nossa Senhora da Sa?de",0,0,0,0,0,0,0,0,0,0,0,0,0,0,0,0,1,"g",857
"734",1302603,"Manaus","AM",-60.4514526,-2.789627851,"Nova Cana?",0,0,0,0,0,0,0,0,0,0,0,0,0,0,0,0,1,"g",857
"735",1302603,"Manaus","AM",-59.97805657,-2.99277739,"Nova Cidade",0,0,0,0,0,0,0,0,0,0,0,0,0,0,0,0,0,NA,1910
"736",1302603,"Manaus","AM",-59.98388887,-2.990555538,"Nova Cidade II",0,0,0,0,0,1,0,0,0,0,0,0,0,0,0,0,0,"u",52
"737",1302603,"Manaus","AM",-60.4305576,-2.746768837,"Nova Esperan?a",0,0,0,0,0,0,0,0,1,0,0,0,0,0,0,0,1,"pig",38
"738",1302603,"Manaus","AM",-60.30738625,-3.046318172,"Novo Para?so",0,0,0,0,0,0,0,0,1,0,0,0,0,0,0,0,1,"pig",38
"739",1302603,"Manaus","AM",-60.40055556,-3.015,"Pared?o",0,0,0,0,0,0,0,0,1,0,0,0,0,0,0,0,1,"pig",38
"740",1302603,"Manaus","AM",-59.9925,-3.152222222,"Pared?o (AM-MA-18)",0,0,0,0,0,1,0,0,0,0,0,0,0,0,0,0,0,"u",52
"741",1302603,"Manaus","AM",-60.0900004,-3.071898232,"Ponta Negra (AM-MA-02)",0,0,0,0,0,1,0,0,0,0,0,0,0,0,0,0,0,"u",52
"742",1302603,"Manaus","AM",-59.97361111,-2.976944444,"Ponte Velha",0,0,0,0,0,0,0,0,0,0,0,0,0,0,0,0,0,NA,1910
"743",1302603,"Manaus","AM",-60.09305567,-3.014444445,"Praia Dourada",0,0,0,0,0,0,0,0,0,0,0,0,0,0,0,0,0,NA,1910
"744",1302603,"Manaus","AM",-60.13131326,-3.033328836,"Praia da Lua",0,0,0,0,0,0,0,0,0,0,0,0,0,0,0,1,0,"m",367
"745",1302603,"Manaus","AM",-59.9540007,-3.141000152,"Refinaria (AM-MA-17)",0,0,0,0,0,1,0,0,0,0,0,0,0,0,0,0,0,"u",52
"746",1302603,"Manaus","AM",-60.48638881,-2.817222122,"S?o Sebasti?o (cuieiras)",0,0,0,0,0,0,0,0,0,0,0,0,0,0,0,0,1,"g",857
"747",1302603,"Manaus","AM",-59.94472223,-3.135833353,"SiderAMa (AM-MA-04)",0,0,0,0,0,0,0,0,0,0,0,0,0,0,0,0,0,NA,1910
"748",1302603,"Manaus","AM",-60.27552663,-3.057651112,"Tatu",0,0,0,0,0,0,0,0,0,0,1,0,0,0,0,0,1,"sdg",43
"749",1302603,"Manaus","AM",-60.46805579,-2.919999328,"Terra Preta",0,0,0,0,0,0,0,0,0,0,0,0,0,0,0,0,0,NA,1910
"750",1302603,"Manaus","AM",-59.86277778,-3.028888889,"Tony Medeiros",0,0,0,0,0,0,0,0,0,0,1,0,0,0,1,0,0,"sdp",37
"751",1302603,"Manaus","AM",-59.88944444,-3.011944444,"UDV",0,0,0,0,0,0,0,0,0,0,0,0,0,0,0,0,0,NA,1910
"752",1302603,"Manaus","AM",-59.97945084,-2.986943166,"Vov?",0,0,0,0,0,0,0,0,0,0,0,0,0,0,0,0,0,NA,1910
"753",1304203,"Tefé","AM",-65.30633333,-4.342416666,"Abiu",0,0,0,0,0,0,1,0,0,1,0,0,0,0,0,0,1,"asusg",210
"754",1304203,"Tefé","AM",-65.01230562,-3.908777874,"Aranatuba",0,0,0,0,0,0,0,0,0,0,0,0,0,0,0,0,0,NA,1910
"755",1304203,"Tefé","AM",-65.17341667,-4.218305555,"Boa Vista",0,0,0,0,0,0,1,0,0,1,0,0,0,0,0,0,1,"asusg",210
"756",1304203,"Tefé","AM",-65.08064803,-4.138796282,"Cacautuba",0,0,0,0,0,0,0,0,0,0,0,0,0,0,0,0,1,"g",857
"757",1304203,"Tefé","AM",-65.07711111,-4.1325,"Cacautuba II",0,0,0,0,0,0,0,0,0,0,0,0,0,0,0,0,1,"g",857
"758",1304203,"Tefé","AM",-65.00458333,-3.951027778,"Guabiraba",0,0,0,0,0,0,0,0,0,0,1,0,0,0,0,0,0,"sd",288
"759",1304203,"Tefé","AM",-65.08444445,-4.042138889,"Irapuru",0,0,0,0,0,0,1,0,0,1,0,0,0,0,0,0,1,"asusg",210
"760",1304203,"Tefé","AM",-65.15716632,-4.184249313,"Ita?ba",0,0,0,0,0,0,1,0,0,1,0,0,0,0,0,0,1,"asusg",210
"761",1304203,"Tefé","AM",-65.02229328,-3.989049052,"Katukina",0,0,0,0,0,0,0,0,0,0,0,0,0,0,0,0,0,NA,1910
"762",1304203,"Tefé","AM",-65.31968314,-4.408234985,"Livramento",0,0,0,0,0,0,0,0,0,0,0,0,0,0,0,0,0,NA,1910
"763",1304203,"Tefé","AM",-65.20131245,-4.292579727,"Mendon?a",0,0,0,0,0,0,1,0,0,0,0,0,0,0,0,0,0,"as",24
"764",1304203,"Tefé","AM",-65.48275,-4.446666667,"Mora",0,0,0,0,0,0,1,0,0,1,0,0,0,0,0,0,1,"asusg",210
"765",1304203,"Tefé","AM",-65.14125595,-4.235268604,"Pirapucu",0,0,0,0,0,0,0,0,0,0,0,0,0,0,0,0,1,"g",857
"766",1304203,"Tefé","AM",-64.97103868,-3.750922759,"Rabo do Jacu",0,0,0,0,0,0,0,0,0,0,0,0,0,0,0,0,1,"g",857
"767",1304203,"Tefé","AM",-64.9871831,-3.73973029,"Sapi?",0,0,0,0,0,0,0,0,0,0,1,0,0,0,0,0,1,"sdg",43
"768",1304203,"Tefé","AM",-64.99132731,-3.735339717,"Sapi? II",0,0,0,0,0,0,0,0,0,0,0,0,0,0,0,0,1,"g",857
"769",1304203,"Tefé","AM",-64.9596526,-3.635231732,"Tauari",0,0,0,0,0,0,0,0,0,0,0,0,0,0,0,0,1,"g",857
"770",1300029,"Alvarães","AM",-65.04977788,-3.648917131,"Tuyuka",0,0,0,0,0,0,1,0,0,1,0,0,0,0,0,0,1,"asusg",210
"771",1302603,"Manaus","AM",-59.33362115,-3.141622976,"Itaka",0,0,0,0,0,0,0,0,0,0,0,0,0,1,0,0,0,"mf",383
"772",1301902,"Itacoatiara","AM",-59.03555921,-3.211613648,"Jo?o Lima",0,0,0,0,0,0,0,0,0,0,0,0,0,0,0,0,0,NA,1910
"773",1301902,"Itacoatiara","AM",-59.14939711,-3.169142112,"Novo Remanso",0,0,0,0,0,0,0,0,0,0,0,0,0,1,0,0,0,"mf",383
"774",1301902,"Itacoatiara","AM",-59.14497317,-3.16969377,"Novo S?o Jorge",0,0,0,0,0,0,1,0,0,1,0,0,0,1,0,0,0,"asusmf",159
"775",1301902,"Itacoatiara","AM",-59.19315849,-3.154856524,"Nossa Senhora do Perpetuo Socorro",0,0,0,0,0,0,0,0,0,0,0,0,0,0,0,0,0,NA,1910
"776",1301902,"Itacoatiara","AM",-59.15803195,-3.165073885,"Sagrado Cora??o",0,0,0,0,0,0,0,0,0,0,0,0,0,1,0,0,0,"mf",383
"777",1301902,"Itacoatiara","AM",-59.12581115,-3.172989117,"S?o Jo?o",0,0,0,0,0,0,0,0,0,0,0,0,0,1,0,0,0,"mf",383
"778",1301902,"Itacoatiara","AM",-59.07783878,-3.182633467,"Sto Antonio Cauxinau?",0,0,0,0,0,0,0,0,0,0,0,0,0,0,0,0,0,NA,1910
"779",1301902,"Itacoatiara","AM",-59.05587319,-3.195262315,"Sta Luzia",0,0,0,0,0,0,1,0,0,1,0,0,0,1,0,0,0,"asusmf",159
"780",1301902,"Itacoatiara","AM",-59.03161324,-3.213411731,"Sta Maria",0,0,0,0,0,0,0,0,0,0,0,0,0,0,0,0,0,NA,1910
"781",1300706,"Boca do Acre","AM",-67.25174,-8.887775,"Mustaf? 2",0,0,0,0,0,0,0,0,0,0,0,0,0,0,0,1,0,"m",367
"782",1300706,"Boca do Acre","AM",-67.253296,-8.843822,"Cruzeirinho",0,0,0,0,0,0,0,0,0,0,0,0,0,0,1,0,0,"p",575
"783",1300706,"Boca do Acre","AM",-67.244736,-8.875443,"Mustaf? 1",0,0,0,0,0,0,0,0,0,0,0,0,0,0,0,1,0,"m",367
"784",1300706,"Boca do Acre","AM",-67.633331,-9.493056,"Andir? 1",0,0,0,0,0,0,0,0,0,0,0,0,0,0,0,0,1,"g",857
"785",1300706,"Boca do Acre","AM",-67.628891,-9.499444,"Andir? 2",0,0,0,0,0,0,0,0,0,0,0,0,0,0,0,0,1,"g",857
"786",1200450,"Senador Guiomard","AC",-67.697716,-10.265132,"Fazenda Nitcheroy 3",0,0,0,0,0,0,0,0,0,0,0,0,0,0,0,0,1,"g",857
"787",1100106,"Guajará-Mirim","RO",-65.384506,-10.614358,"Vila Iata",0,0,0,0,0,0,0,0,0,0,0,0,0,0,0,1,0,"m",367
"788",1200450,"Senador Guiomard","AC",-67.722839,-10.255409,"Estela",0,0,0,0,0,0,0,0,0,0,0,0,0,0,0,0,1,"g",857
"789",1200179,"Capixaba","AC",-67.761101,-10.448932,"Guarani",0,0,0,0,0,0,0,0,0,0,0,0,0,0,0,1,0,"m",367
"790",1200179,"Capixaba","AC",-67.740219,-10.465935,"Hortigranjeira",0,0,0,0,0,0,0,0,0,0,0,0,0,1,0,0,0,"mf",383
"791",1200450,"Senador Guiomard","AC",-67.799629,-10.154848,"Quinari",0,0,0,0,0,0,0,0,0,0,0,0,0,0,0,1,0,"m",367
"792",1200450,"Senador Guiomard","AC",-67.786003,-10.107421,"Benfica",0,0,0,0,0,0,1,0,0,0,0,0,0,1,0,0,0,"asmf",199
"793",1200450,"Senador Guiomard","AC",-67.721893,-10.191206,"Fazenda Miss?es",0,0,0,0,0,0,0,0,0,0,0,0,0,0,0,0,0,NA,1910
"794",1300706,"Boca do Acre","AM",-67.172119,-8.886457,"Mustaf? 3",0,0,0,0,0,0,0,0,0,0,0,0,0,0,1,0,0,"p",575
"795",1200385,"Plácido de Castro","AC",-67.129036,-10.210682,"Col?nia Deus ? Bom",0,0,0,0,0,0,1,0,0,1,0,0,0,0,0,0,0,"asus",38
"796",1200385,"Plácido de Castro","AC",-67.220108,-10.306902,"Rapirr?",0,0,0,0,0,0,1,0,0,1,0,0,0,0,1,0,0,"asusp",77
"797",1200385,"Plácido de Castro","AC",-67.124107,-10.230335,"Col?nia Santa Maria",0,0,0,0,0,0,1,0,0,1,0,0,0,1,0,0,0,"asusmf",159
"798",1200385,"Plácido de Castro","AC",-67.12439,-10.207962,"Col?nia Ouro Verde",0,0,0,0,0,0,1,0,0,1,0,0,0,1,0,0,0,"asusmf",159
"799",1200385,"Plácido de Castro","AC",-67.181198,-10.24906,"Bela Vista",0,0,0,0,0,0,1,0,0,1,0,0,0,1,0,0,0,"asusmf",159
"800",1200385,"Plácido de Castro","AC",-67.177322,-10.216468,"Fazenda Itaquera/Chin?sio",0,0,0,0,0,0,1,0,0,1,0,0,0,1,0,0,0,"asusmf",159
"801",1200385,"Plácido de Castro","AC",-67.158638,-10.217768,"Fazenda Vit?ria/Itaquera",0,0,0,0,0,0,1,0,0,1,0,0,0,0,0,0,0,"asus",38
"802",1200385,"Plácido de Castro","AC",-67.171631,-10.203793,"Pl?cido de Castro 3",0,0,0,0,0,0,1,0,0,1,0,0,0,1,0,0,0,"asusmf",159
"803",1300706,"Boca do Acre","AM",-67.176071,-8.720046,"Boca do Acre",0,0,0,0,0,0,0,0,0,0,0,0,0,0,0,1,0,"m",367
"804",1200179,"Capixaba","AC",-67.726669,-10.413065,"Prohevea (AC-IQ-2)",0,0,0,0,0,0,0,0,0,0,0,0,0,0,0,1,1,"mg",50
"805",1200450,"Senador Guiomard","AC",-67.389725,-9.873333,"Guarant?",0,0,0,0,0,0,1,0,0,1,0,0,0,1,0,0,0,"asusmf",159
"806",1200450,"Senador Guiomard","AC",-67.554443,-10.075556,"Alto Alegre",0,0,0,0,0,0,1,0,0,1,0,0,0,0,0,0,0,"asus",38
"807",1200450,"Senador Guiomard","AC",-67.417334,-9.882475,"Sapucaia",0,0,0,0,0,0,1,0,0,1,0,0,0,1,0,0,0,"asusmf",159
"808",1200401,"Rio Branco","AC",-67.53389,-9.8725,"Fazenda Colorada",0,0,0,0,0,0,0,0,0,0,0,0,0,0,0,0,1,"g",857
"809",1200401,"Rio Branco","AC",-67.496941,-9.963056,"Jac? S?",0,0,0,0,0,0,0,0,0,0,0,0,0,1,0,0,0,"mf",383
"810",1200450,"Senador Guiomard","AC",-67.544724,-10.070833,"Fazenda Baixa Verde I",0,0,0,0,0,0,1,0,0,0,0,0,0,0,1,0,0,"asp",66
"811",1200450,"Senador Guiomard","AC",-67.53704217,-10.03681783,"Fazenda Baixa Verde II",0,0,0,0,0,0,1,0,0,0,0,0,0,0,1,0,0,"asp",66
"812",1200450,"Senador Guiomard","AC",-67.652779,-10.295278,"Fazenda Nitcheroy 4 (AC-IQ-18)",0,0,0,0,0,0,0,0,0,0,0,0,0,0,0,0,1,"g",857
"813",1200450,"Senador Guiomard","AC",-67.34417,-9.787222,"Fazenda Paran?",0,0,0,0,0,0,1,0,0,1,0,0,0,1,0,0,0,"asusmf",159
"814",1200450,"Senador Guiomard","AC",-67.3125,-9.771945,"Boa Sorte",0,0,0,0,0,0,1,0,0,1,0,0,0,1,0,0,0,"asusmf",159
"815",1200450,"Senador Guiomard","AC",-67.344719,-9.771389,"Neuto Lamengo",0,0,0,0,0,0,1,0,0,1,0,0,0,1,0,0,0,"asusmf",159
"816",1200450,"Senador Guiomard","AC",-67.571114,-10.079722,"Fazenda Atlantica",0,0,0,0,0,0,1,0,0,1,0,0,0,0,1,0,0,"asusp",77
"817",1200179,"Capixaba","AC",-67.666664,-10.523699,"Campo da On?a",0,0,0,0,0,0,0,0,0,0,0,0,0,0,1,0,0,"p",575
"818",1200179,"Capixaba","AC",-67.633057,-10.526111,"Fazenda Gavi?o I",0,0,0,0,0,0,0,0,0,0,0,0,0,0,0,0,1,"g",857
"819",1200179,"Capixaba","AC",-67.634155,-10.525288,"Fazenda Gavi?o 2",0,0,0,0,0,0,0,0,0,0,0,0,0,0,0,0,1,"g",857
"820",1200179,"Capixaba","AC",-67.632858,-10.523973,"Fazenda Gavi?o 3",0,0,0,0,0,0,0,0,0,0,0,0,0,0,0,0,1,"g",857
"821",1200385,"Plácido de Castro","AC",-67.541115,-10.328333,"Marimbondo",0,0,0,0,0,0,1,0,0,1,0,0,0,1,1,0,0,"asusmfp",17
"822",1200385,"Plácido de Castro","AC",-67.566391,-10.433333,"Encrenca I",0,0,0,0,0,0,0,0,0,0,0,0,0,1,0,0,0,"mf",383
"823",1200385,"Plácido de Castro","AC",-67.607498,-10.357224,"Ramal Encrenca",0,0,0,0,0,0,0,0,0,0,0,0,0,0,0,0,1,"g",857
"824",1200450,"Senador Guiomard","AC",-67.422218,-9.897222,"Tequinho",0,0,0,0,0,0,1,0,0,1,0,0,0,1,0,0,0,"asusmf",159
"825",1200401,"Rio Branco","AC",-67.90139,-9.848889,"Aeroporto",0,0,0,0,0,0,0,0,0,0,0,0,0,0,0,0,0,NA,1910
"826",1300706,"Boca do Acre","AM",-67.191154,-8.711951,"Nakahara.AM.01",0,0,0,0,0,0,0,0,0,0,0,0,0,0,1,0,0,"p",575
"827",1302553,"Manaquiri","AM",-60.52194444,-3.464722222,"Terreno Bela Vista",0,0,0,0,0,0,1,0,0,1,0,0,0,1,0,0,0,"asusmf",159
"828",1200450,"Senador Guiomard","AC",-67.490555,-9.963611,"Seu Chiquinho",0,0,0,0,0,0,1,0,0,1,0,0,0,1,0,0,0,"asusmf",159
"829",1200450,"Senador Guiomard","AC",-67.616112,-10.054722,"Balne?rio Quinau?",0,0,0,0,0,0,1,0,0,1,0,0,0,1,0,0,0,"asusmf",159
"830",1200138,"Bujari","AC",-67.916946,-9.696111,"Bujari",0,0,0,0,0,0,0,0,0,0,0,0,0,0,0,0,0,NA,1910
"831",1200401,"Rio Branco","AC",-67.803055,-10.075,"Distra??o",0,0,0,0,0,0,1,0,0,0,0,0,0,1,0,0,0,"asmf",199
"832",1200401,"Rio Branco","AC",-67.746948,-9.827778,"Estrada Velha",0,0,0,0,0,0,0,0,0,0,0,0,0,0,1,0,0,"p",575
"833",1200807,"Porto Acre","AC",-67.478615,-9.913889,"Fazenda Boa Vista",0,0,0,0,0,0,0,0,0,0,0,0,0,0,1,0,0,"p",575
"834",1200138,"Bujari","AC",-67.821388,-9.7625,"Mutum",0,0,0,0,0,0,0,0,0,0,0,0,0,0,0,1,0,"m",367
"835",1200450,"Senador Guiomard","AC",-67.65889,-10.096667,"Nascentes do Quinau?",0,0,0,0,0,0,0,0,0,0,0,0,0,0,0,0,1,"g",857
"836",1200401,"Rio Branco","AC",-67.59776909,-9.933250651,"Piloto",0,0,0,0,0,0,0,0,0,0,0,0,0,0,0,0,1,"g",857
"837",1200807,"Porto Acre","AC",-67.724167,-9.576944,"Quadrado",0,0,0,0,0,0,1,0,0,1,0,0,0,1,0,0,0,"asusmf",159
"838",1200401,"Rio Branco","AC",-67.673058,-9.915278,"Quixad?",0,0,0,0,0,0,0,0,0,0,0,0,0,0,0,1,0,"m",367
"839",1200807,"Porto Acre","AC",-67.792503,-9.623333,"Riozinho do Andir?",0,0,0,0,0,0,0,0,0,0,0,0,0,0,0,0,1,"g",857
"840",1200401,"Rio Branco","AC",-68.004166,-10.070833,"Riozinho do Rola 1",0,0,0,0,0,0,1,0,0,0,0,0,0,1,0,0,0,"asmf",199
"841",1200401,"Rio Branco","AC",-67.99472,-10.078333,"Riozinho do Rola 2",0,0,0,0,0,0,1,0,0,0,0,0,0,1,0,0,0,"asmf",199
"842",1200401,"Rio Branco","AC",-68.18528,-10.051667,"Riozinho do Rola 3",0,0,0,0,0,0,0,0,0,0,0,0,0,0,0,0,1,"g",857
"843",1200807,"Porto Acre","AC",-67.666946,-9.701111,"Angelim",0,0,0,0,0,0,1,0,0,1,0,0,0,0,1,0,0,"asusp",77
"844",1200450,"Senador Guiomard","AC",-67.507225,-10.025,"Severino Calazans",0,0,0,0,0,0,0,0,0,0,0,0,0,1,0,0,0,"mf",383
"845",1200401,"Rio Branco","AC",-67.728333,-10.028611,"Soberana",0,0,0,0,0,0,0,0,0,0,0,0,0,0,0,0,1,"g",857
"846",1200401,"Rio Branco","AC",-68.011665,-10.000833,"Transacreana",0,0,0,0,0,0,0,0,0,0,0,0,0,0,1,0,0,"p",575
"847",1200807,"Porto Acre","AC",-67.758614,-9.621111,"Vila V",0,0,0,0,0,0,1,0,0,1,0,0,0,1,0,0,0,"asusmf",159
"848",1200401,"Rio Branco","AC",-67.673615,-9.978889,"Xanadu I",0,0,0,0,0,0,0,0,0,0,0,0,0,0,0,0,1,"g",857
"849",1200401,"Rio Branco","AC",-67.665207,-9.978019,"Xanadu II",0,0,0,0,0,0,0,0,0,0,0,0,0,0,0,0,1,"g",857
"850",1200807,"Porto Acre","AC",-67.440277,-9.884722,"Vila Pia",0,0,0,0,0,0,1,0,0,1,0,0,0,0,1,0,0,"asusp",77
"851",1200401,"Rio Branco","AC",-67.940277,-10.088611,"Macau?",0,0,0,0,0,0,0,0,0,0,0,0,0,0,0,1,0,"m",367
"852",1302504,"Manacapuru","AM",-60.64674999,-3.458888889,"S?o Jo?o",0,0,0,0,0,0,1,0,0,1,0,0,0,0,1,0,0,"asusp",77
"853",1302553,"Manaquiri","AM",-60.51530556,-3.460805556,"S?o Jorge",0,0,0,0,0,0,1,0,0,0,0,0,0,1,0,0,0,"asmf",199
"854",1302553,"Manaquiri","AM",-60.51505753,-3.484651249,"Santa Maria",0,0,0,0,0,0,0,0,0,0,0,0,0,0,0,0,0,NA,1910
"855",1302553,"Manaquiri","AM",-60.51808333,-3.479027778,"S?o Francisco",0,0,0,0,0,0,0,0,0,0,0,0,0,0,0,0,0,NA,1910
"856",1302553,"Manaquiri","AM",-60.52144445,-3.4485,"Santa Ana",0,0,0,0,0,0,1,0,0,0,0,0,0,1,0,0,0,"asmf",199
"857",1302553,"Manaquiri","AM",-60.51917178,-3.443915493,"Porto do Centro Social",0,0,0,0,0,0,1,0,0,0,0,0,0,1,0,0,0,"asmf",199
"858",1302553,"Manaquiri","AM",-60.52444445,-3.472305556,"Centro Social",0,0,0,0,0,0,0,0,0,0,0,0,0,0,0,0,0,NA,1910
"859",1302553,"Manaquiri","AM",-60.59632195,-3.493981915,"Comunidade Caminhando com Cristo",0,0,0,0,0,0,0,0,0,0,1,0,0,0,0,0,0,"sd",288
"860",1302553,"Manaquiri","AM",-60.52341667,-3.4615,"Santo Antonio",0,0,0,0,0,0,1,0,0,1,0,0,0,1,0,0,0,"asusmf",159
"861",1302603,"Manaus","AM",-60.77588322,-2.479461036,"Santa Rosa (AM-MA-09)",0,0,0,0,0,0,1,0,0,1,0,0,0,0,0,1,0,"asusm",36
"862",1302603,"Manaus","AM",-60.74267496,-2.465388199,"Terra Preta (AM-MA-10)",0,0,0,0,0,0,1,0,0,1,0,0,0,0,0,1,0,"asusm",36
"863",1302603,"Manaus","AM",-60.43738601,-2.766825516,"Cariri (AM-MA-13)",0,0,0,0,0,0,0,0,0,0,0,0,0,0,0,0,1,"g",857
"864",1302603,"Manaus","AM",-60.44593272,-2.780823633,"Tucunar? (AM-MA-14)",0,0,0,0,0,0,0,0,0,1,0,0,0,0,0,0,1,"usg",158
"865",1302603,"Manaus","AM",-60.50585075,-2.818574117,"Vila (AM-MA-15)",0,0,0,0,0,0,0,0,0,0,0,0,0,0,0,0,1,"g",857
"866",1302603,"Manaus","AM",-60.67980349,-2.619510712,"Ubim (AM-MA-19)",0,0,0,0,0,0,0,0,0,0,0,0,0,0,0,0,0,NA,1910
"867",1303205,"Novo Airão","AM",-61.42423051,-1.9099202,"S?o Jos? I",0,0,0,0,0,0,0,0,0,0,0,0,0,0,0,0,0,NA,1910
"868",1303205,"Novo Airão","AM",-61.43498733,-1.908885235,"S?o Jos? II",0,0,0,0,0,0,0,0,0,0,0,0,0,0,0,0,0,NA,1910
"869",1303205,"Novo Airão","AM",-61.32657482,-1.905345549,"Corudique",0,0,0,0,0,0,0,0,0,0,1,0,0,0,0,0,0,"sd",288
"870",1303205,"Novo Airão","AM",-61.22563461,-1.939291994,"Camana?",0,0,0,0,0,0,0,0,0,0,1,0,0,0,0,0,0,"sd",288
"871",1303205,"Novo Airão","AM",-60.80038836,-2.748884226,"Maraj?",0,0,0,0,0,0,1,0,0,1,0,0,0,0,0,0,1,"asusg",210
"872",1302603,"Manaus","AM",-60.35382376,-3.025571762,"Caiau? I",0,0,0,0,0,0,0,0,1,0,0,0,0,0,0,0,1,"pig",38
"873",1302603,"Manaus","AM",-60.38069992,-3.004312609,"Caiau? II",0,0,0,0,0,0,0,0,1,0,0,0,0,0,0,0,1,"pig",38
"874",1300409,"Barcelos","AM",-61.44680002,-1.901424305,"Vista Alegre (AM-BL-01)",0,0,0,0,0,0,0,0,1,0,0,0,0,0,0,0,0,"pi",144
"875",1300409,"Barcelos","AM",-61.43069496,-1.899221049,"Samambaia (AM-BL-02)",0,0,0,0,0,0,0,0,1,0,0,0,0,0,0,0,0,"pi",144
